place_id,name,name_display,name_state,state,lat,lon,day1,day2,day3,day4,day5,day6,day7
0100100,Abanda CDP,Abanda,"Abanda, AL",AL,33.091627,-85.527029,101,100,99,100,95,95,94
0100124,Abbeville city,Abbeville,"Abbeville, AL",AL,31.564706,-85.259121,98,99,100,100,98,99,98
0100460,Adamsville city,Adamsville,"Adamsville, AL",AL,33.602315,-86.971527,107,105,103,102,101,99,98
0100484,Addison town,Addison,"Addison, AL",AL,34.202681,-87.178004,103,103,102,98,97,96,95
0100676,Akron town,Akron,"Akron, AL",AL,32.879066,-87.740899,106,105,104,103,100,99,99
0100820,Alabaster city,Alabaster,"Alabaster, AL",AL,33.214355,-86.82308,109,107,106,106,103,102,102
0100988,Albertville city,Albertville,"Albertville, AL",AL,34.26313,-86.21066,106,105,101,100,97,96,95
0101132,Alexander City city,Alexander City,"Alexander City, AL",AL,32.916719,-85.940589,102,102,101,102,98,98,97
0101180,Alexandria CDP,Alexandria,"Alexandria, AL",AL,33.760819,-85.872008,105,104,102,101,98,97,96
0101228,Aliceville city,Aliceville,"Aliceville, AL",AL,33.123706,-88.159344,106,105,105,103,101,101,101
0101396,Allgood town,Allgood,"Allgood, AL",AL,33.907623,-86.516109,109,105,103,103,100,99,97
0101660,Altoona town,Altoona,"Altoona, AL",AL,34.040014,-86.305179,107,105,105,103,101,98,97
0101708,Andalusia city,Andalusia,"Andalusia, AL",AL,31.309436,-86.478031,102,102,102,102,101,101,102
0101756,Anderson town,Anderson,"Anderson, AL",AL,34.915675,-87.274274,106,105,102,100,97,97,95
0101852,Anniston city,Anniston,"Anniston, AL",AL,33.673469,-85.810891,103,101,99,99,97,96,94
0102116,Arab city,Arab,"Arab, AL",AL,34.332387,-86.501167,106,105,101,101,98,95,95
0102260,Ardmore town,Ardmore,"Ardmore, AL",AL,34.987838,-86.829022,107,106,102,100,97,96,94
0102320,Argo city,Argo,"Argo, AL",AL,33.691018,-86.505281,105,103,101,102,99,97,95
0102428,Ariton town,Ariton,"Ariton, AL",AL,31.597772,-85.713061,100,99,100,100,99,99,99
0102500,Arley town,Arley,"Arley, AL",AL,34.076234,-87.217831,105,103,101,99,97,97,95
0102836,Ashford city,Ashford,"Ashford, AL",AL,31.185284,-85.236236,98,99,100,101,99,101,101
0102860,Ashland town,Ashland,"Ashland, AL",AL,33.269892,-85.833706,99,98,96,96,93,94,91
0102908,Ashville city,Ashville,"Ashville, AL",AL,33.835197,-86.270015,107,105,105,105,102,101,98
0102956,Athens city,Athens,"Athens, AL",AL,34.779021,-86.950799,110,106,103,101,98,98,96
0103004,Atmore city,Atmore,"Atmore, AL",AL,31.124067,-87.457798,102,102,101,102,102,102,103
0103028,Attalla city,Attalla,"Attalla, AL",AL,33.986189,-86.121037,109,106,105,105,101,99,98
0103076,Auburn city,Auburn,"Auburn, AL",AL,32.607806,-85.494746,102,100,101,102,99,99,98
0103220,Autaugaville town,Autaugaville,"Autaugaville, AL",AL,32.432563,-86.658752,106,103,104,105,103,103,103
0103364,Avon town,Avon,"Avon, AL",AL,31.179727,-85.279211,99,100,102,102,101,101,102
0103508,Axis CDP,Axis,"Axis, AL",AL,30.922171,-88.02262,106,105,105,105,103,105,106
0103556,Babbie town,Babbie,"Babbie, AL",AL,31.302083,-86.319437,100,101,101,102,101,102,102
0103676,Baileyton town,Baileyton,"Baileyton, AL",AL,34.260858,-86.608788,106,102,101,99,97,95,93
0103724,Bakerhill town,Bakerhill,"Bakerhill, AL",AL,31.776923,-85.295408,100,100,102,102,99,101,101
0103820,Ballplay CDP,Ballplay,"Ballplay, AL",AL,34.023047,-85.801478,110,109,106,107,103,102,100
0103940,Banks town,Banks,"Banks, AL",AL,31.813264,-85.836434,98,99,99,100,97,98,97
0104660,Bay Minette city,Bay Minette,"Bay Minette, AL",AL,30.894436,-87.791306,104,104,103,103,102,103,105
0104684,Bayou La Batre city,Bayou La Batre,"Bayou La Batre, AL",AL,30.407586,-88.263271,107,105,105,103,102,103,105
0104852,Bear Creek town,Bear Creek,"Bear Creek, AL",AL,34.255481,-87.713399,103,102,100,98,95,95,94
0104900,Beatrice town,Beatrice,"Beatrice, AL",AL,31.733309,-87.209046,101,100,99,98,97,98,98
0104948,Beaverton town,Beaverton,"Beaverton, AL",AL,33.935411,-88.021778,109,109,107,106,103,103,102
0105140,Belgreen CDP,Belgreen,"Belgreen, AL",AL,34.47454,-87.861678,102,101,99,98,95,94,93
0105164,Belk town,Belk,"Belk, AL",AL,33.651641,-87.92861,106,104,104,102,101,99,99
0105188,Bellamy CDP,Bellamy,"Bellamy, AL",AL,32.463658,-88.131481,105,103,105,103,102,100,100
0105212,Belle Fontaine CDP,Belle Fontaine,"Belle Fontaine, AL",AL,30.489492,-88.10594,109,105,105,103,100,103,106
0105692,Benton town,Benton,"Benton, AL",AL,32.307931,-86.817546,106,104,104,103,102,102,102
0105812,Berlin town,Berlin,"Berlin, AL",AL,34.185005,-86.748955,106,102,101,99,97,95,95
0105932,Berry town,Berry,"Berry, AL",AL,33.666702,-87.609311,107,106,104,103,101,101,99
0105980,Bessemer city,Bessemer,"Bessemer, AL",AL,33.370858,-86.971522,106,105,104,103,102,101,99
0106460,Billingsley town,Billingsley,"Billingsley, AL",AL,32.664711,-86.706713,102,101,101,101,100,99,99
0107000,Birmingham city,Birmingham,"Birmingham, AL",AL,33.527174,-86.797036,107,105,102,103,102,101,99
0107120,Black town,Black,"Black, AL",AL,31.00977,-85.74442,100,101,102,102,101,102,101
0107456,Blountsville town,Blountsville,"Blountsville, AL",AL,34.075838,-86.583918,106,105,102,101,99,97,95
0107588,Blue Ridge CDP,Blue Ridge,"Blue Ridge, AL",AL,32.4989,-86.182436,105,101,101,101,99,99,99
0107672,Blue Springs town,Blue Springs,"Blue Springs, AL",AL,31.663516,-85.503526,101,100,102,102,101,101,99
0107912,Boaz city,Boaz,"Boaz, AL",AL,34.19902,-86.155151,105,103,101,100,98,95,93
0108104,Boligee town,Boligee,"Boligee, AL",AL,32.768081,-88.02859,106,105,105,105,102,102,102
0108248,Bon Air town,Bon Air,"Bon Air, AL",AL,33.259355,-86.327175,109,109,107,106,103,103,102
0108272,Bon Secour CDP,Bon Secour,"Bon Secour, AL",AL,30.318246,-87.72439,102,101,100,100,100,100,103
0108680,Boykin CDP,Boykin,"Boykin, AL",AL,32.068375,-87.294343,103,102,101,101,99,99,100
0109016,Brantley town,Brantley,"Brantley, AL",AL,31.581992,-86.256784,101,101,101,102,101,101,100
0109064,Brantleyville CDP,Brantleyville,"Brantleyville, AL",AL,33.219303,-86.882522,107,106,105,105,102,102,100
0109136,Brent city,Brent,"Brent, AL",AL,32.944893,-87.172088,107,106,106,106,103,103,102
0109208,Brewton city,Brewton,"Brewton, AL",AL,31.109175,-87.076583,103,102,101,101,100,102,102
0109328,Bridgeport city,Bridgeport,"Bridgeport, AL",AL,34.949312,-85.723765,106,104,101,101,97,95,92
0109400,Brighton city,Brighton,"Brighton, AL",AL,33.439551,-86.945404,107,105,104,103,101,101,99
0109424,Brilliant town,Brilliant,"Brilliant, AL",AL,34.025671,-87.769047,106,105,104,102,101,98,99
0109457,Bristow Cove CDP,Bristow Cove,"Bristow Cove, AL",AL,34.109216,-86.240993,107,105,103,103,101,98,97
0109500,Brook Highland CDP,Brook Highland,"Brook Highland, AL",AL,33.438035,-86.685262,107,106,105,105,102,103,100
0109736,Brookside town,Brookside,"Brookside, AL",AL,33.634617,-86.906314,107,105,104,103,102,101,99
0109808,Brookwood town,Brookwood,"Brookwood, AL",AL,33.239842,-87.331488,104,102,104,102,101,99,99
0109880,Broomtown CDP,Broomtown,"Broomtown, AL",AL,34.365728,-85.532112,109,105,104,104,98,97,95
0110240,Brundidge city,Brundidge,"Brundidge, AL",AL,31.717639,-85.81755,100,100,100,102,98,99,99
0110456,Bucks CDP,Bucks,"Bucks, AL",AL,31.016881,-88.026385,106,104,104,103,103,105,106
0111032,Butler town,Butler,"Butler, AL",AL,32.096479,-88.210781,106,104,102,102,101,102,99
0111416,Calera city,Calera,"Calera, AL",AL,33.122319,-86.745644,107,106,105,106,102,102,100
0111488,Calvert CDP,Calvert,"Calvert, AL",AL,31.149898,-88.021549,105,103,104,103,102,103,103
0111512,Camden city,Camden,"Camden, AL",AL,31.998493,-87.28895,102,101,101,102,99,99,99
0111680,Camp Hill town,Camp Hill,"Camp Hill, AL",AL,32.797327,-85.655833,104,103,102,101,99,99,98
0112016,Carbon Hill city,Carbon Hill,"Carbon Hill, AL",AL,33.894991,-87.522078,106,104,104,101,99,98,98
0112040,Cardiff town,Cardiff,"Cardiff, AL",AL,33.64729,-86.930637,107,105,102,102,101,99,97
0112070,Carlisle-Rockledge CDP,Carlisle-Rockledge,"Carlisle-Rockledge, AL",AL,34.114451,-86.124073,107,103,101,101,97,95,95
0112112,Carlton CDP,Carlton,"Carlton, AL",AL,31.348571,-87.835666,104,101,101,101,99,99,102
0112160,Carolina town,Carolina,"Carolina, AL",AL,31.23415,-86.521001,102,103,101,102,101,101,102
0112304,Carrollton town,Carrollton,"Carrollton, AL",AL,33.261903,-88.095071,106,105,105,105,102,102,100
0112496,Castleberry town,Castleberry,"Castleberry, AL",AL,31.299678,-87.029129,103,101,101,102,99,102,102
0112544,Catherine CDP,Catherine,"Catherine, AL",AL,32.18617,-87.469978,103,101,99,100,99,99,99
0112760,Cedar Bluff town,Cedar Bluff,"Cedar Bluff, AL",AL,34.221422,-85.588565,106,102,100,97,95,95,93
0113264,Center Point city,Center Point,"Center Point, AL",AL,33.643903,-86.684567,106,105,103,103,99,98,98
0113648,Centre city,Centre,"Centre, AL",AL,34.153059,-85.671683,111,109,107,105,102,100,98
0113672,Centreville city,Centreville,"Centreville, AL",AL,32.958967,-87.132043,107,106,106,106,103,103,102
0114008,Chatom town,Chatom,"Chatom, AL",AL,31.469145,-88.246019,105,102,103,103,102,102,102
0114104,Chelsea city,Chelsea,"Chelsea, AL",AL,33.309007,-86.635139,109,109,106,106,105,103,102
0114152,Cherokee town,Cherokee,"Cherokee, AL",AL,34.7577,-87.965589,106,106,103,101,99,98,97
0114202,Cherokee Ridge town,Cherokee Ridge,"Cherokee Ridge, AL",AL,34.420931,-86.563316,106,103,101,98,97,95,93
0114392,Chickasaw city,Chickasaw,"Chickasaw, AL",AL,30.77145,-88.079697,108,106,105,105,105,106,109
0114464,Childersburg city,Childersburg,"Childersburg, AL",AL,33.292558,-86.340864,109,109,105,106,103,102,102
0114728,Choccolocco CDP,Choccolocco,"Choccolocco, AL",AL,33.667728,-85.707191,103,103,99,99,96,95,93
0114968,Chunchula CDP,Chunchula,"Chunchula, AL",AL,30.927194,-88.2082,105,105,104,103,105,105,106
0115064,Citronelle city,Citronelle,"Citronelle, AL",AL,31.097269,-88.249843,105,104,104,103,103,105,106
0115136,Clanton city,Clanton,"Clanton, AL",AL,32.845572,-86.619494,105,104,104,103,102,100,100
0115256,Clay city,Clay,"Clay, AL",AL,33.696583,-86.608182,105,102,101,102,98,98,94
0115304,Clayhatchee town,Clayhatchee,"Clayhatchee, AL",AL,31.236925,-85.721478,101,102,103,103,102,103,103
0115376,Clayton city,Clayton,"Clayton, AL",AL,31.882277,-85.460454,100,99,101,102,99,99,98
0115472,Cleveland town,Cleveland,"Cleveland, AL",AL,34.002179,-86.561352,110,106,105,105,102,100,98
0115640,Clio city,Clio,"Clio, AL",AL,31.708516,-85.611039,100,99,101,101,99,99,99
0116000,Coaling city,Coaling,"Coaling, AL",AL,33.169901,-87.349887,106,105,104,105,101,102,100
0116080,Coats Bend CDP,Coats Bend,"Coats Bend, AL",AL,34.073273,-85.874602,109,107,105,105,102,101,98
0116240,Coffee Springs town,Coffee Springs,"Coffee Springs, AL",AL,31.165836,-85.910898,100,101,102,102,101,102,102
0116264,Coffeeville town,Coffeeville,"Coffeeville, AL",AL,31.766564,-88.086049,107,105,105,105,105,103,105
0116312,Coker town,Coker,"Coker, AL",AL,33.243752,-87.681329,106,105,105,105,102,102,100
0116600,Collinsville city,Collinsville,"Collinsville, AL",AL,34.267224,-85.86861,110,109,105,104,100,98,97
0116684,Colony town,Colony,"Colony, AL",AL,33.941393,-86.902001,107,106,105,103,101,99,98
0116744,Columbia town,Columbia,"Columbia, AL",AL,31.295351,-85.110202,98,101,101,101,98,100,101
0116768,Columbiana city,Columbiana,"Columbiana, AL",AL,33.191452,-86.615618,107,106,105,106,103,102,102
0116936,Concord CDP,Concord,"Concord, AL",AL,33.461988,-87.040429,105,104,102,102,99,99,98
0117176,Coosada town,Coosada,"Coosada, AL",AL,32.495394,-86.326543,105,104,104,103,103,102,102
0117368,Cordova town,Cordova,"Cordova, AL",AL,33.761788,-87.199416,107,104,104,103,101,101,99
0117704,Cottondale CDP,Cottondale,"Cottondale, AL",AL,33.193047,-87.454861,106,105,104,103,101,101,99
0117824,Cottonwood town,Cottonwood,"Cottonwood, AL",AL,31.054033,-85.29956,99,102,103,103,102,102,103
0117968,County Line town,County Line,"County Line, AL",AL,33.818902,-86.714706,107,106,105,105,101,99,97
0118040,Courtland town,Courtland,"Courtland, AL",AL,34.669946,-87.327892,107,104,102,100,97,96,96
0118088,Cowarts town,Cowarts,"Cowarts, AL",AL,31.206248,-85.309769,99,99,101,102,99,101,101
0118304,Creola town,Creola,"Creola, AL",AL,30.874249,-88.009536,108,108,105,105,106,106,107
0118856,Crossville town,Crossville,"Crossville, AL",AL,34.282697,-85.999737,105,102,100,99,96,94,92
0118952,Cuba town,Cuba,"Cuba, AL",AL,32.440733,-88.374798,104,101,104,103,102,100,99
0118976,Cullman city,Cullman,"Cullman, AL",AL,34.17687,-86.840656,107,103,102,102,99,97,95
0119024,Cullomburg CDP,Cullomburg,"Cullomburg, AL",AL,31.713061,-88.291774,104,104,102,103,102,103,103
0119216,Cusseta town,Cusseta,"Cusseta, AL",AL,32.787637,-85.305769,102,100,101,102,99,99,98
0119336,Dadeville city,Dadeville,"Dadeville, AL",AL,32.826114,-85.776201,103,102,101,101,99,99,98
0119360,Daleville city,Daleville,"Daleville, AL",AL,31.291534,-85.711711,101,101,102,101,101,101,102
0119648,Daphne city,Daphne,"Daphne, AL",AL,30.627931,-87.872087,104,102,103,103,103,105,106
0119744,Dauphin Island town,Dauphin Island,"Dauphin Island, AL",AL,30.250913,-88.171268,103,101,100,99,100,102,103
0119816,Daviston town,Daviston,"Daviston, AL",AL,33.056839,-85.634329,103,101,99,101,97,97,95
0119912,Dayton town,Dayton,"Dayton, AL",AL,32.350958,-87.641573,101,99,100,99,99,98,98
0120008,Deatsville town,Deatsville,"Deatsville, AL",AL,32.589044,-86.389059,106,104,105,103,103,103,102
0120104,Decatur city,Decatur,"Decatur, AL",AL,34.572995,-86.989901,109,106,105,102,100,99,97
0120152,Deer Park CDP,Deer Park,"Deer Park, AL",AL,31.218369,-88.328023,105,104,104,103,102,102,103
0120272,Delta CDP,Delta,"Delta, AL",AL,33.440524,-85.675905,100,97,97,97,92,93,91
0120296,Demopolis city,Demopolis,"Demopolis, AL",AL,32.499744,-87.826678,105,101,104,103,101,99,99
0120392,Detroit town,Detroit,"Detroit, AL",AL,34.027379,-88.167831,109,107,105,105,102,102,100
0120955,Dodge City town,Dodge City,"Dodge City, AL",AL,34.043275,-86.885524,106,105,101,101,98,97,95
0121136,Dora city,Dora,"Dora, AL",AL,33.728116,-87.081292,107,106,103,103,102,100,99
0121184,Dothan city,Dothan,"Dothan, AL",AL,31.233698,-85.406823,99,100,102,102,101,102,102
0121280,Double Springs town,Double Springs,"Double Springs, AL",AL,34.149648,-87.389447,103,102,101,100,98,97,95
0121328,Douglas town,Douglas,"Douglas, AL",AL,34.168258,-86.323386,107,105,103,102,99,97,95
0121448,Dozier town,Dozier,"Dozier, AL",AL,31.505407,-86.369235,100,100,99,100,98,98,99
0121890,Dunnavant CDP,Dunnavant,"Dunnavant, AL",AL,33.495171,-86.540245,109,106,105,105,102,102,100
0121952,Dutton town,Dutton,"Dutton, AL",AL,34.606152,-85.91185,101,100,97,96,93,91,90
0122088,Eagle Point CDP,Eagle Point,"Eagle Point, AL",AL,33.400912,-86.676753,105,104,102,102,100,99,98
0122216,East Brewton city,East Brewton,"East Brewton, AL",AL,31.09144,-87.055345,104,103,101,101,100,102,102
0122504,East Point CDP,East Point,"East Point, AL",AL,34.19121,-86.792253,106,103,101,99,97,95,95
0122816,Eclectic town,Eclectic,"Eclectic, AL",AL,32.640222,-86.041062,104,103,104,102,102,100,100
0123032,Edgewater CDP,Edgewater,"Edgewater, AL",AL,33.530099,-86.95279,107,104,102,102,101,99,98
0123176,Edwardsville town,Edwardsville,"Edwardsville, AL",AL,33.88374,-85.414124,107,105,101,102,99,97,95
0123224,Egypt CDP,Egypt,"Egypt, AL",AL,34.075938,-86.165054,105,102,101,99,97,95,93
0123296,Elba city,Elba,"Elba, AL",AL,31.417218,-86.077115,100,100,100,101,99,101,102
0123320,Elberta town,Elberta,"Elberta, AL",AL,30.373753,-87.595729,106,103,105,103,103,105,108
0123344,Eldridge town,Eldridge,"Eldridge, AL",AL,33.923053,-87.622869,107,106,105,103,101,99,99
0123488,Elkmont town,Elkmont,"Elkmont, AL",AL,34.932604,-86.976971,106,105,101,100,96,95,94
0123656,Elmore town,Elmore,"Elmore, AL",AL,32.556606,-86.341025,106,104,104,105,102,103,103
0123872,Emelle town,Emelle,"Emelle, AL",AL,32.728678,-88.316486,102,101,102,102,100,99,99
0123880,Emerald Mountain CDP,Emerald Mountain,"Emerald Mountain, AL",AL,32.447694,-86.094381,104,101,101,103,101,99,99
0124184,Enterprise city,Enterprise,"Enterprise, AL",AL,31.325529,-85.846071,100,100,100,101,99,101,101
0124256,Epes town,Epes,"Epes, AL",AL,32.695049,-88.141963,105,104,105,105,102,101,101
0124280,Equality CDP,Equality,"Equality, AL",AL,32.765659,-86.123185,105,104,102,101,101,99,98
0124472,Ethelsville town,Ethelsville,"Ethelsville, AL",AL,33.414066,-88.216093,105,104,103,102,101,99,99
0124568,Eufaula city,Eufaula,"Eufaula, AL",AL,31.909937,-85.152709,101,101,103,104,101,101,101
0124616,Eunola CDP,Eunola,"Eunola, AL",AL,31.031391,-85.833966,102,101,104,103,102,103,105
0124664,Eutaw city,Eutaw,"Eutaw, AL",AL,32.846247,-87.900332,106,105,104,102,101,101,99
0124688,Eva town,Eva,"Eva, AL",AL,34.326504,-86.765318,103,102,99,97,96,95,92
0124808,Evergreen city,Evergreen,"Evergreen, AL",AL,31.433216,-86.976081,101,100,100,101,99,101,99
0124880,Excel town,Excel,"Excel, AL",AL,31.426386,-87.343663,99,99,98,98,97,98,98
0125120,Fairfield city,Fairfield,"Fairfield, AL",AL,33.474802,-86.919407,107,105,105,103,101,101,99
0125216,Fairford CDP,Fairford,"Fairford, AL",AL,31.178002,-88.072784,103,103,101,103,102,102,103
0125240,Fairhope city,Fairhope,"Fairhope, AL",AL,30.52092,-87.879122,105,101,102,102,102,103,105
0125384,Fairview town,Fairview,"Fairview, AL",AL,34.250195,-86.677724,106,102,101,101,97,95,93
0125648,Falkville town,Falkville,"Falkville, AL",AL,34.377019,-86.909547,107,105,104,101,98,98,96
0125816,Faunsdale town,Faunsdale,"Faunsdale, AL",AL,32.457614,-87.593789,103,101,101,102,98,98,98
0125840,Fayette city,Fayette,"Fayette, AL",AL,33.694215,-87.831169,106,105,104,103,101,101,99
0125864,Fayetteville CDP,Fayetteville,"Fayetteville, AL",AL,33.168097,-86.442774,106,105,105,103,100,102,99
0126152,Fitzpatrick CDP,Fitzpatrick,"Fitzpatrick, AL",AL,32.210377,-85.873693,101,100,101,101,99,99,98
0126200,Five Points town,Five Points,"Five Points, AL",AL,33.017311,-85.351592,101,100,99,98,97,95,95
0126824,Flomaton town,Flomaton,"Flomaton, AL",AL,31.014816,-87.256016,104,103,102,105,103,103,103
0126848,Florala town,Florala,"Florala, AL",AL,31.022391,-86.318152,101,101,102,102,100,101,102
0126896,Florence city,Florence,"Florence, AL",AL,34.82981,-87.662202,110,107,106,103,101,99,98
0126992,Foley city,Foley,"Foley, AL",AL,30.397068,-87.66846,105,102,102,103,103,105,106
0127088,Forestdale CDP,Forestdale,"Forestdale, AL",AL,33.573701,-86.900047,106,104,102,102,101,99,97
0127376,Forkland town,Forkland,"Forkland, AL",AL,32.647435,-87.867436,105,102,103,103,100,100,100
0127520,Fort Deposit town,Fort Deposit,"Fort Deposit, AL",AL,31.986261,-86.566359,100,98,99,100,98,98,97
0127616,Fort Payne city,Fort Payne,"Fort Payne, AL",AL,34.457329,-85.689447,107,105,102,100,97,95,93
0127640,Fort Rucker CDP,Fort Rucker,"Fort Rucker, AL",AL,31.342576,-85.716072,100,100,102,102,102,103,102
0128024,Franklin town,Franklin,"Franklin, AL",AL,32.452693,-85.78541,104,101,101,103,99,100,100
0128120,Fredonia CDP,Fredonia,"Fredonia, AL",AL,32.983577,-85.292306,102,101,100,101,98,98,98
0128312,Frisco City town,Frisco City,"Frisco City, AL",AL,31.439485,-87.404182,100,100,99,97,97,98,98
0128408,Fruitdale CDP,Fruitdale,"Fruitdale, AL",AL,31.34979,-88.410937,105,104,102,105,102,103,103
0128432,Fruithurst town,Fruithurst,"Fruithurst, AL",AL,33.729539,-85.431249,104,104,100,100,96,96,94
0128504,Fulton town,Fulton,"Fulton, AL",AL,31.790989,-87.744212,102,100,99,99,97,98,98
0128552,Fultondale city,Fultondale,"Fultondale, AL",AL,33.617363,-86.801436,110,107,105,105,102,102,99
0128672,Fyffe town,Fyffe,"Fyffe, AL",AL,34.448957,-85.905167,104,101,99,98,94,93,91
0128696,Gadsden city,Gadsden,"Gadsden, AL",AL,34.006597,-86.016078,110,107,106,106,101,99,99
0128768,Gainesville town,Gainesville,"Gainesville, AL",AL,32.814934,-88.160791,106,104,105,103,102,102,100
0128816,Gallant CDP,Gallant,"Gallant, AL",AL,34.001318,-86.230171,109,105,105,103,99,98,98
0128936,Gantt town,Gantt,"Gantt, AL",AL,31.41074,-86.483524,101,101,101,102,99,102,102
0129032,Garden City town,Garden City,"Garden City, AL",AL,34.014688,-86.749054,106,105,102,102,98,97,95
0129056,Gardendale city,Gardendale,"Gardendale, AL",AL,33.674039,-86.80846,107,105,104,103,102,101,98
0129296,Gaylesville town,Gaylesville,"Gaylesville, AL",AL,34.267444,-85.561248,111,107,107,106,102,101,98
0129392,Geiger town,Geiger,"Geiger, AL",AL,32.868715,-88.318154,105,104,105,103,101,101,101
0129464,Geneva city,Geneva,"Geneva, AL",AL,31.043278,-85.875833,99,101,102,102,101,102,102
0129560,Georgiana town,Georgiana,"Georgiana, AL",AL,31.639134,-86.746762,100,100,99,100,98,98,99
0129608,Geraldine town,Geraldine,"Geraldine, AL",AL,34.359087,-86.002579,105,102,100,99,95,94,91
0129704,Gilbertown town,Gilbertown,"Gilbertown, AL",AL,31.866247,-88.307545,105,105,102,105,102,103,102
0129944,Glen Allen town,Glen Allen,"Glen Allen, AL",AL,33.892108,-87.732682,107,105,104,103,101,101,99
0129992,Glencoe city,Glencoe,"Glencoe, AL",AL,33.948339,-85.933606,109,107,105,105,102,101,98
0130160,Glenwood town,Glenwood,"Glenwood, AL",AL,31.671266,-86.173687,101,101,100,102,99,101,102
0130448,Goldville town,Goldville,"Goldville, AL",AL,33.084867,-85.777982,101,100,98,99,95,95,93
0130496,Good Hope city,Good Hope,"Good Hope, AL",AL,34.110689,-86.867104,106,105,103,102,99,97,95
0130640,Goodwater town,Goodwater,"Goodwater, AL",AL,33.060713,-86.052486,102,101,100,100,97,97,95
0130736,Gordo town,Gordo,"Gordo, AL",AL,33.322286,-87.903681,106,104,105,103,101,102,100
0130760,Gordon town,Gordon,"Gordon, AL",AL,31.143606,-85.092504,97,101,100,101,99,101,101
0130808,Gordonville town,Gordonville,"Gordonville, AL",AL,32.159179,-86.704235,104,101,100,103,99,101,101
0130880,Goshen town,Goshen,"Goshen, AL",AL,31.720015,-86.123245,99,99,99,101,98,99,99
0131000,Graham CDP,Graham,"Graham, AL",AL,33.455191,-85.323085,101,99,98,99,94,94,93
0131024,Grand Bay CDP,Grand Bay,"Grand Bay, AL",AL,30.472082,-88.344401,106,105,105,103,102,105,106
0131096,Grant town,Grant,"Grant, AL",AL,34.518173,-86.26043,109,106,103,101,98,97,95
0131348,Grayson Valley CDP,Grayson Valley,"Grayson Valley, AL",AL,33.646568,-86.641942,105,102,102,102,98,97,97
0131384,Graysville city,Graysville,"Graysville, AL",AL,33.633756,-86.941398,107,105,105,105,102,101,99
0131720,Greensboro city,Greensboro,"Greensboro, AL",AL,32.700968,-87.5937,103,102,101,102,99,99,99
0131912,Greenville city,Greenville,"Greenville, AL",AL,31.843072,-86.636951,101,100,99,100,98,99,98
0132056,Grimes town,Grimes,"Grimes, AL",AL,31.299869,-85.45029,99,100,101,101,99,101,101
0132080,Grove Hill town,Grove Hill,"Grove Hill, AL",AL,31.69867,-87.772868,101,100,100,99,97,99,99
0132224,Guin city,Guin,"Guin, AL",AL,33.98322,-87.902363,106,106,104,102,101,99,99
0132248,Gulfcrest CDP,Gulfcrest,"Gulfcrest, AL",AL,30.991106,-88.242231,105,104,104,103,102,103,105
0132272,Gulf Shores city,Gulf Shores,"Gulf Shores, AL",AL,30.277172,-87.702355,106,103,103,105,102,103,105
0132416,Guntersville city,Guntersville,"Guntersville, AL",AL,34.367947,-86.252323,110,106,104,102,99,97,97
0132440,Gurley town,Gurley,"Gurley, AL",AL,34.701364,-86.380271,114,111,106,106,103,101,98
0132536,Gu-Win town,Gu-Win,"Gu-Win, AL",AL,33.94433,-87.870376,106,106,105,105,102,101,101
0132560,Hackleburg town,Hackleburg,"Hackleburg, AL",AL,34.269355,-87.830402,102,102,100,98,95,95,95
0132584,Hackneyville CDP,Hackneyville,"Hackneyville, AL",AL,33.054654,-85.934423,102,102,101,101,98,98,97
0132656,Haleburg town,Haleburg,"Haleburg, AL",AL,31.409976,-85.138068,98,100,100,100,98,99,99
0132704,Haleyville city,Haleyville,"Haleyville, AL",AL,34.233832,-87.617574,102,101,100,98,97,95,94
0132848,Hamilton city,Hamilton,"Hamilton, AL",AL,34.138713,-87.970833,106,106,103,103,101,101,99
0132896,Hammondville town,Hammondville,"Hammondville, AL",AL,34.566232,-85.640348,104,102,99,99,95,93,91
0132968,Hanceville city,Hanceville,"Hanceville, AL",AL,34.06401,-86.764436,107,105,103,103,101,98,97
0133064,Hanover CDP,Hanover,"Hanover, AL",AL,33.002922,-86.200931,104,104,101,101,99,99,97
0133256,Harpersville town,Harpersville,"Harpersville, AL",AL,33.317725,-86.428431,110,109,106,107,105,103,103
0133424,Hartford city,Hartford,"Hartford, AL",AL,31.105348,-85.691225,101,102,103,103,102,103,102
0133448,Hartselle city,Hartselle,"Hartselle, AL",AL,34.440434,-86.940364,107,104,102,101,97,96,95
0133472,Harvest CDP,Harvest,"Harvest, AL",AL,34.85507,-86.758643,109,107,104,100,98,97,96
0133544,Hatton CDP,Hatton,"Hatton, AL",AL,34.560671,-87.413835,105,102,101,99,96,96,94
0133640,Hayden town,Hayden,"Hayden, AL",AL,33.894514,-86.744224,110,107,107,106,103,101,101
0133712,Hayneville town,Hayneville,"Hayneville, AL",AL,32.182595,-86.578588,104,102,100,101,101,101,101
0133808,Hazel Green CDP,Hazel Green,"Hazel Green, AL",AL,34.923656,-86.567392,109,106,104,102,98,97,96
0133856,Headland city,Headland,"Headland, AL",AL,31.354974,-85.357031,99,100,102,101,99,101,101
0133904,Heath town,Heath,"Heath, AL",AL,31.344839,-86.46905,103,103,103,103,101,102,102
0133976,Heflin city,Heflin,"Heflin, AL",AL,33.6474,-85.569339,105,102,100,100,96,95,94
0134024,Helena city,Helena,"Helena, AL",AL,33.283424,-86.879177,109,107,106,106,103,103,102
0134096,Henagar city,Henagar,"Henagar, AL",AL,34.630641,-85.730918,99,98,95,94,90,88,87
0134480,Highland Lake town,Highland Lake,"Highland Lake, AL",AL,33.894586,-86.422553,107,105,102,103,99,98,95
0134490,Highland Lakes CDP,Highland Lakes,"Highland Lakes, AL",AL,33.397611,-86.64792,105,102,102,102,99,99,98
0134816,Hillsboro town,Hillsboro,"Hillsboro, AL",AL,34.642586,-87.178489,107,105,104,100,99,97,96
0134984,Hissop CDP,Hissop,"Hissop, AL",AL,32.890568,-86.129601,102,101,100,100,99,98,98
0135130,Hobson CDP,Hobson,"Hobson, AL",AL,31.488725,-88.150928,105,103,102,102,102,102,102
0135152,Hobson City town,Hobson City,"Hobson City, AL",AL,33.618801,-85.846146,102,102,98,99,95,94,93
0135200,Hodges town,Hodges,"Hodges, AL",AL,34.334246,-87.92316,102,101,100,99,98,95,95
0135392,Hokes Bluff city,Hokes Bluff,"Hokes Bluff, AL",AL,33.989682,-85.862873,109,107,104,105,101,100,97
0135512,Hollins CDP,Hollins,"Hollins, AL",AL,33.121757,-86.126967,104,102,100,101,97,97,95
0135536,Hollis Crossroads CDP,Hollis Crossroads,"Hollis Crossroads, AL",AL,33.531333,-85.652862,102,101,99,98,95,94,93
0135560,Holly Pond town,Holly Pond,"Holly Pond, AL",AL,34.167686,-86.612067,106,103,101,99,97,95,95
0135632,Hollywood town,Hollywood,"Hollywood, AL",AL,34.717279,-85.965579,107,106,102,102,98,97,95
0135704,Holt CDP,Holt,"Holt, AL",AL,33.229745,-87.482894,106,104,104,103,101,101,99
0135752,Holtville CDP,Holtville,"Holtville, AL",AL,32.630299,-86.328004,106,105,105,105,102,102,102
0135800,Homewood city,Homewood,"Homewood, AL",AL,33.45855,-86.80965,110,106,106,106,103,102,101
0135896,Hoover city,Hoover,"Hoover, AL",AL,33.375128,-86.809416,110,109,107,107,105,105,103
0136088,Horn Hill town,Horn Hill,"Horn Hill, AL",AL,31.238137,-86.325163,102,102,101,102,101,102,101
0136448,Hueytown city,Hueytown,"Hueytown, AL",AL,33.408604,-87.016565,106,105,104,102,101,99,98
0136592,Huguley CDP,Huguley,"Huguley, AL",AL,32.843062,-85.239635,102,100,100,101,99,98,98
0137000,Huntsville city,Huntsville,"Huntsville, AL",AL,34.69772,-86.67667,110,107,105,102,100,99,97
0137096,Hurtsboro town,Hurtsboro,"Hurtsboro, AL",AL,32.24009,-85.41467,101,100,101,102,99,101,99
0137264,Hytop town,Hytop,"Hytop, AL",AL,34.896635,-86.089176,98,96,92,91,89,86,84
0137312,Ider town,Ider,"Ider, AL",AL,34.702599,-85.668958,100,99,95,94,91,89,88
0137465,Indian Springs Village city,Indian Springs Village,"Indian Springs Village, AL",AL,33.361209,-86.746856,107,105,106,106,102,102,102
0137864,Irondale city,Irondale,"Irondale, AL",AL,33.539914,-86.659082,106,103,103,103,100,99,98
0138032,Ivalee CDP,Ivalee,"Ivalee, AL",AL,34.037204,-86.147182,110,106,105,105,102,99,98
0138152,Jackson city,Jackson,"Jackson, AL",AL,31.532321,-87.891183,105,100,100,99,99,99,99
0138248,Jacksons' Gap town,Jacksons' Gap,"Jacksons' Gap, AL",AL,32.884019,-85.815046,104,104,102,102,99,99,98
0138272,Jacksonville city,Jacksonville,"Jacksonville, AL",AL,33.810066,-85.755217,107,107,104,104,102,99,97
0138416,Jasper city,Jasper,"Jasper, AL",AL,33.85111,-87.268348,107,104,102,102,99,99,98
0138608,Jemison city,Jemison,"Jemison, AL",AL,32.970705,-86.73307,104,104,104,103,101,99,99
0139064,Joppa CDP,Joppa,"Joppa, AL",AL,34.29955,-86.549946,106,102,101,101,96,95,93
0139280,Kansas town,Kansas,"Kansas, AL",AL,33.902808,-87.556598,107,106,105,103,102,101,99
0139472,Kellyton town,Kellyton,"Kellyton, AL",AL,32.979188,-86.034608,102,102,100,101,99,98,98
0139520,Kennedy town,Kennedy,"Kennedy, AL",AL,33.580722,-87.9855,107,106,106,105,102,103,102
0139784,Killen town,Killen,"Killen, AL",AL,34.860954,-87.529346,106,105,102,101,98,97,96
0139856,Kimberly city,Kimberly,"Kimberly, AL",AL,33.776982,-86.800198,110,106,106,105,103,102,99
0140072,Kinsey city,Kinsey,"Kinsey, AL",AL,31.296269,-85.334994,99,100,101,102,99,101,99
0140096,Kinston town,Kinston,"Kinston, AL",AL,31.219604,-86.170075,100,100,100,101,101,102,101
0140648,Ladonia CDP,Ladonia,"Ladonia, AL",AL,32.459709,-85.090423,102,100,101,102,99,98,98
0140672,La Fayette city,La Fayette,"La Fayette, AL",AL,32.899427,-85.400795,101,100,99,99,97,96,95
0140888,Lakeview town,Lakeview,"Lakeview, AL",AL,34.391675,-85.975573,105,102,100,99,95,94,92
0140928,Lake View city,Lake View,"Lake View, AL",AL,33.288266,-87.132653,105,104,104,102,101,100,98
0141296,Lanett city,Lanett,"Lanett, AL",AL,32.858649,-85.207788,102,101,100,102,97,99,98
0141368,Langston town,Langston,"Langston, AL",AL,34.545063,-86.09335,109,106,103,99,98,97,95
0141968,Leeds city,Leeds,"Leeds, AL",AL,33.546847,-86.571448,109,106,103,103,100,100,99
0142016,Leesburg town,Leesburg,"Leesburg, AL",AL,34.178627,-85.777897,111,109,107,106,102,101,99
0142160,Leighton town,Leighton,"Leighton, AL",AL,34.69368,-87.524282,106,105,101,100,98,97,95
0142304,Leroy CDP,Leroy,"Leroy, AL",AL,31.494971,-87.972773,105,103,102,102,100,100,102
0142352,Lester town,Lester,"Lester, AL",AL,34.982751,-87.155534,106,105,101,100,97,95,94
0142472,Level Plains town,Level Plains,"Level Plains, AL",AL,31.307125,-85.768722,101,101,102,102,101,101,102
0142640,Lexington town,Lexington,"Lexington, AL",AL,34.959351,-87.37283,106,106,102,101,97,96,96
0142808,Libertyville town,Libertyville,"Libertyville, AL",AL,31.24005,-86.456955,101,102,101,102,101,102,102
0142928,Lillian CDP,Lillian,"Lillian, AL",AL,30.418904,-87.420751,103,102,103,102,103,105,106
0143120,Lincoln city,Lincoln,"Lincoln, AL",AL,33.580169,-86.127876,107,105,102,103,99,98,97
0143240,Linden town,Linden,"Linden, AL",AL,32.30136,-87.792583,102,100,100,101,99,99,99
0143264,Lineville city,Lineville,"Lineville, AL",AL,33.312832,-85.752278,99,98,97,97,93,93,91
0143336,Lipscomb city,Lipscomb,"Lipscomb, AL",AL,33.426005,-86.926103,110,106,106,106,103,103,101
0143384,Lisman town,Lisman,"Lisman, AL",AL,32.171729,-88.284092,106,105,102,102,102,102,102
0143648,Littleville town,Littleville,"Littleville, AL",AL,34.595121,-87.670729,105,103,101,100,97,96,95
0143720,Livingston city,Livingston,"Livingston, AL",AL,32.595549,-88.186929,106,104,103,105,100,102,100
0143744,Loachapoka town,Loachapoka,"Loachapoka, AL",AL,32.607946,-85.598479,102,100,100,99,98,99,98
0143816,Lockhart town,Lockhart,"Lockhart, AL",AL,31.013011,-86.350273,100,101,101,101,99,101,101
0143888,Locust Fork town,Locust Fork,"Locust Fork, AL",AL,33.876794,-86.647093,109,106,106,105,102,101,99
0144160,Lookout Mountain CDP,Lookout Mountain,"Lookout Mountain, AL",AL,34.115916,-85.965464,109,106,104,103,99,98,96
0144344,Louisville town,Louisville,"Louisville, AL",AL,31.781047,-85.558336,100,99,101,101,99,99,99
0144536,Lowndesboro town,Lowndesboro,"Lowndesboro, AL",AL,32.276422,-86.610848,102,100,100,100,98,99,99
0144608,Loxley city,Loxley,"Loxley, AL",AL,30.684588,-87.739213,104,102,102,102,100,102,103
0144728,Luverne city,Luverne,"Luverne, AL",AL,31.718941,-86.269082,101,101,101,101,99,100,100
0144800,Lynn town,Lynn,"Lynn, AL",AL,34.057591,-87.548643,106,105,102,102,99,99,98
0145040,McCalla CDP,McCalla,"McCalla, AL",AL,33.303112,-87.02666,106,105,104,102,101,101,99
0145208,McDonald Chapel CDP,McDonald Chapel,"McDonald Chapel, AL",AL,33.518576,-86.938462,106,104,104,102,101,99,98
0145316,Macedonia CDP,Macedonia,"Macedonia, AL",AL,33.403139,-88.239221,106,104,104,103,101,101,101
0145472,McIntosh town,McIntosh,"McIntosh, AL",AL,31.264957,-88.028369,106,104,102,103,103,103,105
0145496,McKenzie town,McKenzie,"McKenzie, AL",AL,31.54647,-86.725954,100,100,98,100,97,98,98
0145640,McMullen town,McMullen,"McMullen, AL",AL,33.1481,-88.175749,106,105,105,105,102,102,100
0145784,Madison city,Madison,"Madison, AL",AL,34.710533,-86.76228,110,107,104,101,98,98,97
0145904,Madrid town,Madrid,"Madrid, AL",AL,31.035635,-85.399205,99,101,103,102,101,102,101
0146072,Magnolia Springs town,Magnolia Springs,"Magnolia Springs, AL",AL,30.40341,-87.775895,105,102,103,103,103,105,106
0146192,Malcolm CDP,Malcolm,"Malcolm, AL",AL,31.198806,-88.000624,106,104,105,105,103,106,106
0146264,Malvern town,Malvern,"Malvern, AL",AL,31.143698,-85.522973,98,100,100,101,101,102,101
0146504,Maplesville town,Maplesville,"Maplesville, AL",AL,32.784391,-86.879694,105,101,101,102,101,99,98
0146600,Marbury CDP,Marbury,"Marbury, AL",AL,32.672984,-86.463728,104,101,101,101,100,100,99
0146696,Margaret city,Margaret,"Margaret, AL",AL,33.672861,-86.463942,109,106,105,105,100,99,99
0146768,Marion city,Marion,"Marion, AL",AL,32.631968,-87.317333,102,101,101,102,100,99,97
0147728,Maytown town,Maytown,"Maytown, AL",AL,33.549954,-87.000043,105,102,101,101,99,98,97
0147740,Meadowbrook CDP,Meadowbrook,"Meadowbrook, AL",AL,33.395235,-86.704373,109,106,106,105,102,102,100
0147848,Megargel CDP,Megargel,"Megargel, AL",AL,31.378141,-87.430649,101,100,101,102,100,100,102
0148052,Memphis town,Memphis,"Memphis, AL",AL,33.137044,-88.305942,106,104,103,102,101,101,99
0148064,Mentone town,Mentone,"Mentone, AL",AL,34.563209,-85.589704,100,97,95,94,91,88,87
0148112,Meridianville CDP,Meridianville,"Meridianville, AL",AL,34.874913,-86.580559,109,106,104,101,98,97,96
0148376,Midfield city,Midfield,"Midfield, AL",AL,33.455272,-86.922414,107,106,106,106,103,102,101
0148400,Midland City city,Midland City,"Midland City, AL",AL,31.315675,-85.493674,99,100,101,101,99,99,101
0148424,Midway town,Midway,"Midway, AL",AL,32.076373,-85.524417,98,97,98,101,97,97,97
0148616,Mignon CDP,Mignon,"Mignon, AL",AL,33.18658,-86.256886,107,105,105,104,101,101,99
0148712,Millbrook city,Millbrook,"Millbrook, AL",AL,32.501474,-86.373914,105,103,103,103,102,102,102
0148784,Millerville CDP,Millerville,"Millerville, AL",AL,33.191458,-85.929828,102,101,100,100,96,95,95
0148808,Millport town,Millport,"Millport, AL",AL,33.555935,-88.082382,106,105,104,103,101,101,99
0148832,Millry town,Millry,"Millry, AL",AL,31.621199,-88.327956,105,105,105,106,103,105,105
0149072,Minor CDP,Minor,"Minor, AL",AL,33.539011,-86.940073,107,104,102,102,101,99,98
0150000,Mobile city,Mobile,"Mobile, AL",AL,30.668246,-88.107853,109,105,105,105,105,106,107
0150192,Monroeville city,Monroeville,"Monroeville, AL",AL,31.516223,-87.327714,100,100,98,98,97,98,98
0150312,Montevallo city,Montevallo,"Montevallo, AL",AL,33.126053,-86.847702,107,106,106,106,103,103,102
0151000,Montgomery city,Montgomery,"Montgomery, AL",AL,32.348503,-86.267307,106,103,103,102,101,102,101
0151096,Moody city,Moody,"Moody, AL",AL,33.603429,-86.493786,109,106,106,105,102,100,99
0151216,Moores Mill CDP,Moores Mill,"Moores Mill, AL",AL,34.852143,-86.52038,111,109,105,102,101,99,96
0151264,Mooresville town,Mooresville,"Mooresville, AL",AL,34.625883,-86.880025,109,105,104,101,99,97,96
0151456,Morris city,Morris,"Morris, AL",AL,33.746223,-86.800755,110,107,106,106,105,103,99
0151469,Morrison Crossroads CDP,Morrison Crossroads,"Morrison Crossroads, AL",AL,33.417996,-85.488284,100,99,97,98,93,94,91
0151520,Mosses town,Mosses,"Mosses, AL",AL,32.188758,-86.679435,104,101,100,103,99,101,101
0151600,Moulton city,Moulton,"Moulton, AL",AL,34.488302,-87.282707,106,104,101,99,96,96,95
0151648,Moundville town,Moundville,"Moundville, AL",AL,32.996542,-87.627545,106,105,105,103,103,101,101
0151696,Mountain Brook city,Mountain Brook,"Mountain Brook, AL",AL,33.491488,-86.73447,107,104,102,102,99,99,98
0152320,Mount Olive CDP,Mount Olive,"Mount Olive, AL",AL,33.078454,-86.13304,102,101,100,100,97,95,95
0152344,Mount Olive CDP,Mount Olive,"Mount Olive, AL",AL,33.669286,-86.87549,106,105,102,102,101,99,97
0152608,Mount Vernon town,Mount Vernon,"Mount Vernon, AL",AL,31.087727,-88.013166,104,102,101,101,100,102,103
0152680,Movico CDP,Movico,"Movico, AL",AL,31.062763,-88.026619,105,104,102,103,103,105,105
0152776,Mulga town,Mulga,"Mulga, AL",AL,33.556313,-86.972304,105,102,102,102,99,99,97
0152848,Munford town,Munford,"Munford, AL",AL,33.527644,-85.953809,106,105,102,102,98,97,96
0153016,Muscle Shoals city,Muscle Shoals,"Muscle Shoals, AL",AL,34.742657,-87.633767,107,106,104,101,98,97,97
0153112,Myrtlewood town,Myrtlewood,"Myrtlewood, AL",AL,32.252088,-87.949261,102,101,101,102,99,100,99
0153208,Nanafalia CDP,Nanafalia,"Nanafalia, AL",AL,32.111393,-87.995757,103,101,101,101,99,99,99
0153232,Nances Creek CDP,Nances Creek,"Nances Creek, AL",AL,33.855501,-85.669104,109,107,104,104,100,99,97
0153256,Napier Field town,Napier Field,"Napier Field, AL",AL,31.314925,-85.454929,99,99,99,101,98,100,98
0153376,Natural Bridge town,Natural Bridge,"Natural Bridge, AL",AL,34.092195,-87.601,103,102,101,101,99,97,97
0153400,Nauvoo town,Nauvoo,"Nauvoo, AL",AL,33.984386,-87.48544,107,105,105,103,101,101,99
0153448,Nectar town,Nectar,"Nectar, AL",AL,33.979779,-86.620614,110,107,106,105,103,100,98
0153472,Needham town,Needham,"Needham, AL",AL,31.987,-88.336563,104,104,102,102,99,100,99
0153784,Newbern town,Newbern,"Newbern, AL",AL,32.591672,-87.535614,105,102,102,103,99,99,98
0153856,New Brockton town,New Brockton,"New Brockton, AL",AL,31.37671,-85.919028,100,100,100,101,99,101,101
0154168,New Hope city,New Hope,"New Hope, AL",AL,34.537972,-86.412372,114,111,109,106,103,101,99
0154312,New Market CDP,New Market,"New Market, AL",AL,34.892335,-86.425818,111,109,105,103,99,98,97
0154432,New Site town,New Site,"New Site, AL",AL,33.026041,-85.784536,101,100,99,100,95,97,94
0154480,Newton town,Newton,"Newton, AL",AL,31.341229,-85.588307,100,100,102,101,102,102,102
0154582,New Union CDP,New Union,"New Union, AL",AL,34.133682,-86.228002,105,102,99,98,97,93,93
0154600,Newville town,Newville,"Newville, AL",AL,31.420604,-85.33669,98,99,100,100,99,101,99
0154696,Nixburg CDP,Nixburg,"Nixburg, AL",AL,32.855488,-86.100838,102,101,101,102,99,98,98
0155044,North Courtland town,North Courtland,"North Courtland, AL",AL,34.680023,-87.305717,106,105,102,101,98,96,96
0155152,North Johns town,North Johns,"North Johns, AL",AL,33.367769,-87.100725,107,105,105,105,101,102,99
0155200,Northport city,Northport,"Northport, AL",AL,33.257565,-87.596396,106,105,105,104,102,101,101
0155440,Notasulga town,Notasulga,"Notasulga, AL",AL,32.555409,-85.668577,104,102,101,103,99,100,99
0155752,Oak Grove town,Oak Grove,"Oak Grove, AL",AL,33.190359,-86.303727,107,107,105,105,102,100,100
0155848,Oak Hill town,Oak Hill,"Oak Hill, AL",AL,31.92162,-87.085234,102,100,100,101,99,100,100
0155992,Oakman town,Oakman,"Oakman, AL",AL,33.714322,-87.388699,107,105,105,103,101,101,99
0156400,Odenville city,Odenville,"Odenville, AL",AL,33.700875,-86.423371,106,105,102,102,100,98,98
0156472,Ohatchee town,Ohatchee,"Ohatchee, AL",AL,33.789759,-86.029062,106,105,104,104,99,98,97
0157000,Oneonta city,Oneonta,"Oneonta, AL",AL,33.947038,-86.489793,105,103,101,101,99,97,95
0157024,Onycha town,Onycha,"Onycha, AL",AL,31.225693,-86.276024,101,101,100,101,99,99,101
0157048,Opelika city,Opelika,"Opelika, AL",AL,32.660739,-85.37889,101,99,99,100,97,97,97
0157120,Opp city,Opp,"Opp, AL",AL,31.284375,-86.257442,101,101,101,102,101,101,102
0157144,Orange Beach city,Orange Beach,"Orange Beach, AL",AL,30.293987,-87.595371,103,102,102,102,102,105,106
0157240,Orrville town,Orrville,"Orrville, AL",AL,32.306769,-87.245447,104,100,101,102,99,100,99
0157384,Our Town CDP,Our Town,"Our Town, AL",AL,32.842211,-85.967035,104,102,101,101,100,99,99
0157504,Owens Cross Roads city,Owens Cross Roads,"Owens Cross Roads, AL",AL,34.585458,-86.455027,113,110,107,103,102,101,99
0157576,Oxford city,Oxford,"Oxford, AL",AL,33.59641,-85.868219,104,102,100,100,96,96,95
0157648,Ozark city,Ozark,"Ozark, AL",AL,31.451615,-85.645035,100,100,101,101,101,101,101
0157696,Paint Rock town,Paint Rock,"Paint Rock, AL",AL,34.660934,-86.333952,116,114,110,106,105,103,100
0157912,Panola CDP,Panola,"Panola, AL",AL,32.946819,-88.262266,105,102,103,102,101,101,99
0158272,Parrish town,Parrish,"Parrish, AL",AL,33.732321,-87.280127,106,105,104,103,101,101,99
0158680,Pea Ridge CDP,Pea Ridge,"Pea Ridge, AL",AL,33.133805,-86.937949,105,104,104,103,101,99,99
0158848,Pelham city,Pelham,"Pelham, AL",AL,33.32183,-86.742197,107,106,105,105,102,100,100
0158896,Pell City city,Pell City,"Pell City, AL",AL,33.560312,-86.263634,110,107,105,105,101,99,99
0158968,Pennington town,Pennington,"Pennington, AL",AL,32.200612,-88.037572,105,103,101,102,100,100,100
0159016,Penton CDP,Penton,"Penton, AL",AL,33.009832,-85.474824,101,100,99,100,97,97,94
0159064,Perdido CDP,Perdido,"Perdido, AL",AL,31.005634,-87.630272,104,102,101,102,100,102,102
0159088,Perdido Beach town,Perdido Beach,"Perdido Beach, AL",AL,30.353879,-87.5048,106,103,105,103,103,105,108
0159232,Peterman CDP,Peterman,"Peterman, AL",AL,31.583669,-87.263042,100,100,99,98,97,98,98
0159328,Petrey town,Petrey,"Petrey, AL",AL,31.85216,-86.204007,100,101,99,101,99,99,99
0159472,Phenix City city,Phenix City,"Phenix City, AL",AL,32.453709,-85.031019,101,101,101,101,99,99,98
0159496,Phil Campbell town,Phil Campbell,"Phil Campbell, AL",AL,34.351547,-87.707359,102,101,98,97,94,94,93
0159592,Pickensville town,Pickensville,"Pickensville, AL",AL,33.235782,-88.289443,106,105,105,105,103,102,102
0159640,Piedmont city,Piedmont,"Piedmont, AL",AL,33.927557,-85.615267,110,109,106,106,102,101,99
0159760,Pike Road city,Pike Road,"Pike Road, AL",AL,32.273609,-86.118927,102,100,101,101,98,99,99
0159832,Pinckard town,Pinckard,"Pinckard, AL",AL,31.318989,-85.537836,99,101,101,101,99,101,101
0159880,Pine Apple town,Pine Apple,"Pine Apple, AL",AL,31.872155,-86.989059,102,100,101,101,99,100,100
0160240,Pine Hill town,Pine Hill,"Pine Hill, AL",AL,31.985884,-87.587516,102,101,99,99,99,98,98
0160264,Pine Level CDP,Pine Level,"Pine Level, AL",AL,32.579539,-86.454318,102,101,100,101,99,99,99
0160372,Pine Ridge town,Pine Ridge,"Pine Ridge, AL",AL,34.447915,-85.783831,106,104,102,100,96,95,94
0160648,Pinson city,Pinson,"Pinson, AL",AL,33.709262,-86.663613,109,106,105,105,102,100,99
0160720,Pisgah town,Pisgah,"Pisgah, AL",AL,34.684366,-85.84601,102,101,97,96,93,91,90
0161008,Pleasant Grove city,Pleasant Grove,"Pleasant Grove, AL",AL,33.493967,-86.97815,105,102,102,102,99,98,98
0161038,Pleasant Groves town,Pleasant Groves,"Pleasant Groves, AL",AL,34.737619,-86.197637,103,100,96,96,92,91,89
0161488,Point Clear CDP,Point Clear,"Point Clear, AL",AL,30.486112,-87.911132,106,102,102,102,102,103,105
0161536,Pollard town,Pollard,"Pollard, AL",AL,31.023877,-87.172978,103,103,102,102,100,102,103
0162075,Powell town,Powell,"Powell, AL",AL,34.532588,-85.897553,104,102,99,98,94,93,91
0162328,Prattville city,Prattville,"Prattville, AL",AL,32.449041,-86.449401,106,104,105,103,103,103,103
0162472,Priceville city,Priceville,"Priceville, AL",AL,34.529583,-86.882177,109,106,104,101,100,98,96
0162496,Prichard city,Prichard,"Prichard, AL",AL,30.773337,-88.131416,106,106,106,106,105,106,107
0162688,Providence town,Providence,"Providence, AL",AL,32.342386,-87.776115,103,101,101,102,102,100,100
0162952,Putnam CDP,Putnam,"Putnam, AL",AL,32.018084,-88.033057,105,102,102,103,102,102,100
0163216,Ragland town,Ragland,"Ragland, AL",AL,33.748325,-86.135927,107,106,106,105,101,101,98
0163288,Rainbow City city,Rainbow City,"Rainbow City, AL",AL,33.928777,-86.084228,105,102,101,102,97,96,95
0163336,Rainsville city,Rainsville,"Rainsville, AL",AL,34.494364,-85.836505,102,101,98,98,94,93,91
0163408,Ranburne town,Ranburne,"Ranburne, AL",AL,33.525853,-85.339013,104,101,98,99,95,95,93
0163495,Ray CDP,Ray,"Ray, AL",AL,32.868141,-86.045252,104,102,101,102,99,99,98
0163576,Red Bay city,Red Bay,"Red Bay, AL",AL,34.436097,-88.136515,105,103,101,99,99,98,98
0163730,Redland CDP,Redland,"Redland, AL",AL,32.481426,-86.143759,106,104,102,103,102,100,100
0163768,Red Level town,Red Level,"Red Level, AL",AL,31.406711,-86.606217,101,100,102,102,99,101,102
0163912,Redstone Arsenal CDP,Redstone Arsenal,"Redstone Arsenal, AL",AL,34.687763,-86.661172,107,105,102,100,97,96,95
0163984,Reece City town,Reece City,"Reece City, AL",AL,34.077241,-86.034498,106,105,103,102,98,97,96
0164040,Reeltown CDP,Reeltown,"Reeltown, AL",AL,32.574211,-85.819562,105,104,102,103,100,100,100
0164104,Reform town,Reform,"Reform, AL",AL,33.37826,-88.017273,105,105,102,102,101,101,99
0164152,Rehobeth town,Rehobeth,"Rehobeth, AL",AL,31.124507,-85.439607,99,101,102,101,99,101,101
0164248,Remlap CDP,Remlap,"Remlap, AL",AL,33.806972,-86.593941,108,106,105,105,102,99,98
0164368,Repton town,Repton,"Repton, AL",AL,31.409716,-87.238931,101,100,100,101,99,99,100
0164656,Ridgeville town,Ridgeville,"Ridgeville, AL",AL,34.056929,-86.102874,107,105,102,102,98,97,97
0164776,River Falls town,River Falls,"River Falls, AL",AL,31.352397,-86.544609,102,101,101,101,99,99,101
0164920,Riverside city,Riverside,"Riverside, AL",AL,33.616394,-86.204357,109,105,104,103,101,99,98
0165016,Riverview town,Riverview,"Riverview, AL",AL,31.06126,-87.077531,105,104,104,105,103,103,105
0165040,Roanoke city,Roanoke,"Roanoke, AL",AL,33.145305,-85.369526,102,100,98,100,95,95,94
0165208,Robertsdale city,Robertsdale,"Robertsdale, AL",AL,30.557139,-87.704723,104,102,102,102,102,103,105
0165412,Rock Creek CDP,Rock Creek,"Rock Creek, AL",AL,33.477227,-87.081249,106,102,101,102,99,98,98
0165472,Rockford town,Rockford,"Rockford, AL",AL,32.896866,-86.208346,104,103,101,101,99,99,98
0165592,Rock Mills CDP,Rock Mills,"Rock Mills, AL",AL,33.15994,-85.28107,102,100,99,100,95,95,94
0165784,Rockville CDP,Rockville,"Rockville, AL",AL,31.405776,-87.844212,104,101,102,102,99,102,100
0166216,Rogersville town,Rogersville,"Rogersville, AL",AL,34.827714,-87.284092,107,105,102,100,98,97,95
0166408,Rosa town,Rosa,"Rosa, AL",AL,33.992756,-86.500325,110,109,106,105,102,100,98
0167056,Russellville city,Russellville,"Russellville, AL",AL,34.505719,-87.728123,105,103,101,99,97,97,95
0167176,Rutledge town,Rutledge,"Rutledge, AL",AL,31.724072,-86.302008,101,100,99,100,98,99,99
0167536,St. Florian town,St. Florian,"St. Florian, AL",AL,34.874098,-87.623736,107,106,102,101,99,97,96
0167584,St. Stephens CDP,St. Stephens,"St. Stephens, AL",AL,31.571111,-88.052834,106,104,101,102,100,100,103
0167608,Saks CDP,Saks,"Saks, AL",AL,33.711401,-85.853698,105,105,102,102,98,97,96
0167800,Samson town,Samson,"Samson, AL",AL,31.112417,-86.046735,101,102,102,103,102,102,103
0167920,Sand Rock town,Sand Rock,"Sand Rock, AL",AL,34.231228,-85.770416,107,105,105,104,98,97,95
0168016,Sanford town,Sanford,"Sanford, AL",AL,31.298819,-86.398848,101,101,100,101,99,99,101
0168160,Saraland city,Saraland,"Saraland, AL",AL,30.854573,-88.109844,106,105,105,106,105,106,107
0168280,Sardis City town,Sardis City,"Sardis City, AL",AL,34.172413,-86.119104,106,103,102,101,97,95,93
0168352,Satsuma city,Satsuma,"Satsuma, AL",AL,30.857874,-88.063383,108,105,105,105,103,105,107
0168736,Scottsboro city,Scottsboro,"Scottsboro, AL",AL,34.64462,-86.048155,110,107,104,102,99,97,95
0169000,Section town,Section,"Section, AL",AL,34.581644,-85.984942,102,101,98,97,93,91,90
0169120,Selma city,Selma,"Selma, AL",AL,32.416983,-87.035702,105,103,102,105,102,100,100
0169180,Selmont-West Selmont CDP,Selmont-West Selmont,"Selmont-West Selmont, AL",AL,32.378253,-87.006888,105,103,104,105,102,102,100
0169240,Semmes city,Semmes,"Semmes, AL",AL,30.796223,-88.24759,105,104,105,105,103,105,107
0169648,Sheffield city,Sheffield,"Sheffield, AL",AL,34.757019,-87.697085,109,106,104,102,100,98,97
0169672,Shelby CDP,Shelby,"Shelby, AL",AL,33.106882,-86.585403,107,107,106,107,105,103,102
0169840,Shiloh town,Shiloh,"Shiloh, AL",AL,34.462666,-85.877617,105,102,99,99,95,94,91
0169978,Shoal Creek CDP,Shoal Creek,"Shoal Creek, AL",AL,33.430763,-86.610925,103,101,100,101,98,97,95
0170128,Shorter town,Shorter,"Shorter, AL",AL,32.411501,-85.972808,105,104,104,106,102,102,100
0170416,Silas town,Silas,"Silas, AL",AL,31.767802,-88.325923,105,103,102,102,102,102,102
0170536,Silverhill town,Silverhill,"Silverhill, AL",AL,30.545359,-87.750557,104,104,103,102,102,103,105
0170632,Sims Chapel CDP,Sims Chapel,"Sims Chapel, AL",AL,31.249255,-88.142971,105,104,102,103,102,102,103
0170704,Sipsey town,Sipsey,"Sipsey, AL",AL,33.822119,-87.082918,109,106,105,103,102,102,99
0170896,Skyline town,Skyline,"Skyline, AL",AL,34.798524,-86.12243,100,97,94,93,89,88,86
0171040,Slocomb city,Slocomb,"Slocomb, AL",AL,31.112126,-85.59866,99,101,101,101,101,102,102
0171190,Smiths Station city,Smiths Station,"Smiths Station, AL",AL,32.522852,-85.099425,100,100,100,102,98,99,98
0171201,Smoke Rise CDP,Smoke Rise,"Smoke Rise, AL",AL,33.879942,-86.824683,105,103,101,102,98,97,97
0171280,Snead town,Snead,"Snead, AL",AL,34.116228,-86.390916,109,106,103,102,101,98,97
0171496,Somerville town,Somerville,"Somerville, AL",AL,34.467053,-86.791203,109,106,105,102,100,98,97
0171832,Southside city,Southside,"Southside, AL",AL,33.890841,-86.01802,107,105,104,105,101,99,97
0171900,South Vinemont town,South Vinemont,"South Vinemont, AL",AL,34.235567,-86.863965,103,102,100,98,96,95,92
0171976,Spanish Fort city,Spanish Fort,"Spanish Fort, AL",AL,30.722968,-87.865917,105,104,103,102,103,103,105
0172408,Spring Garden CDP,Spring Garden,"Spring Garden, AL",AL,33.972965,-85.555756,111,109,105,106,102,101,99
0172600,Springville city,Springville,"Springville, AL",AL,33.74052,-86.484086,106,103,101,102,99,98,97
0172672,Spruce Pine CDP,Spruce Pine,"Spruce Pine, AL",AL,34.39287,-87.729597,101,101,98,97,94,94,93
0172720,Standing Rock CDP,Standing Rock,"Standing Rock, AL",AL,33.08569,-85.239849,104,101,100,101,98,97,95
0172816,Stapleton CDP,Stapleton,"Stapleton, AL",AL,30.735558,-87.797727,104,102,102,102,100,102,103
0172888,Steele town,Steele,"Steele, AL",AL,33.941378,-86.192107,110,106,105,106,102,101,99
0173056,Sterrett CDP,Sterrett,"Sterrett, AL",AL,33.442198,-86.461045,111,109,107,107,105,103,103
0173080,Stevenson town,Stevenson,"Stevenson, AL",AL,34.876797,-85.81435,106,106,101,100,97,95,92
0173152,Stewartville CDP,Stewartville,"Stewartville, AL",AL,33.075532,-86.260693,105,105,104,103,101,99,99
0173272,Stockton CDP,Stockton,"Stockton, AL",AL,31.001245,-87.873929,105,104,105,105,103,105,105
0173728,Sulligent town,Sulligent,"Sulligent, AL",AL,33.891189,-88.126633,109,106,106,105,103,102,101
0173848,Sumiton city,Sumiton,"Sumiton, AL",AL,33.749269,-87.046903,107,106,103,103,102,100,99
0173872,Summerdale town,Summerdale,"Summerdale, AL",AL,30.476741,-87.687561,105,102,103,102,102,103,105
0174160,Susan Moore town,Susan Moore,"Susan Moore, AL",AL,34.072993,-86.414156,110,107,105,103,101,99,98
0174304,Sweet Water town,Sweet Water,"Sweet Water, AL",AL,32.104614,-87.861889,103,100,101,101,99,98,98
0174352,Sylacauga city,Sylacauga,"Sylacauga, AL",AL,33.18867,-86.274799,109,107,106,105,102,102,100
0174400,Sylvania town,Sylvania,"Sylvania, AL",AL,34.562039,-85.804722,101,100,97,94,93,91,89
0174424,Sylvan Springs town,Sylvan Springs,"Sylvan Springs, AL",AL,33.530194,-87.031158,105,105,101,102,99,98,98
0174592,Talladega city,Talladega,"Talladega, AL",AL,33.431757,-86.099454,106,105,102,102,99,98,97
0174616,Talladega Springs town,Talladega Springs,"Talladega Springs, AL",AL,33.120452,-86.437761,109,107,105,106,103,103,102
0174688,Tallassee city,Tallassee,"Tallassee, AL",AL,32.532665,-85.891993,106,106,105,106,102,105,103
0174976,Tarrant city,Tarrant,"Tarrant, AL",AL,33.592897,-86.766253,107,105,104,103,102,101,99
0175096,Taylor city,Taylor,"Taylor, AL",AL,31.168811,-85.47579,98,100,100,101,99,101,101
0175768,Theodore CDP,Theodore,"Theodore, AL",AL,30.538686,-88.187573,106,104,105,103,103,105,106
0175936,Thomaston town,Thomaston,"Thomaston, AL",AL,32.268277,-87.623706,101,99,100,99,99,98,98
0175960,Thomasville city,Thomasville,"Thomasville, AL",AL,31.915011,-87.737204,101,99,99,99,97,98,98
0176080,Thorsby city,Thorsby,"Thorsby, AL",AL,32.916909,-86.720335,105,102,101,102,99,99,98
0176200,Tibbie CDP,Tibbie,"Tibbie, AL",AL,31.37049,-88.243862,106,104,102,105,103,103,103
0176208,Tidmore Bend CDP,Tidmore Bend,"Tidmore Bend, AL",AL,34.033184,-85.926387,109,106,105,105,102,100,98
0176320,Tillmans Corner CDP,Tillmans Corner,"Tillmans Corner, AL",AL,30.581533,-88.21278,106,104,103,103,103,105,107
0176584,Town Creek town,Town Creek,"Town Creek, AL",AL,34.671301,-87.407763,107,106,104,100,98,97,96
0176632,Toxey town,Toxey,"Toxey, AL",AL,31.910712,-88.309146,106,105,105,105,105,105,105
0176680,Trafford town,Trafford,"Trafford, AL",AL,33.818713,-86.746502,107,106,105,103,102,101,98
0176824,Triana city,Triana,"Triana, AL",AL,34.587779,-86.748488,109,107,104,101,101,98,97
0176872,Trinity city,Trinity,"Trinity, AL",AL,34.597445,-87.081354,106,104,102,100,97,96,95
0176920,Troy city,Troy,"Troy, AL",AL,31.80196,-85.96713,100,99,99,101,98,98,99
0176944,Trussville city,Trussville,"Trussville, AL",AL,33.655233,-86.563239,106,103,102,102,99,98,97
0177256,Tuscaloosa city,Tuscaloosa,"Tuscaloosa, AL",AL,33.234404,-87.5283,109,107,107,106,103,103,102
0177280,Tuscumbia city,Tuscumbia,"Tuscumbia, AL",AL,34.718502,-87.702586,109,107,105,102,99,99,98
0177304,Tuskegee city,Tuskegee,"Tuskegee, AL",AL,32.418723,-85.682509,101,100,100,101,99,99,98
0177352,Twin town,Twin,"Twin, AL",AL,33.992314,-87.852295,106,105,104,104,101,99,99
0177580,Underwood-Petersville CDP,Underwood-Petersville,"Underwood-Petersville, AL",AL,34.876112,-87.698157,107,107,104,101,99,98,96
0177616,Union town,Union,"Union, AL",AL,32.99381,-87.907179,105,104,102,102,101,99,99
0177784,Union Grove town,Union Grove,"Union Grove, AL",AL,34.406172,-86.451667,106,106,102,99,98,97,95
0177880,Union Springs city,Union Springs,"Union Springs, AL",AL,32.139506,-85.714623,98,97,99,101,97,98,97
0177904,Uniontown city,Uniontown,"Uniontown, AL",AL,32.44662,-87.487271,102,101,101,102,99,98,98
0178120,Uriah CDP,Uriah,"Uriah, AL",AL,31.307365,-87.499213,101,100,100,99,99,99,99
0178204,Valley city,Valley,"Valley, AL",AL,32.801427,-85.204438,102,101,100,101,99,98,98
0178232,Valley Grande city,Valley Grande,"Valley Grande, AL",AL,32.486872,-87.032773,105,102,102,102,100,102,100
0178240,Valley Head town,Valley Head,"Valley Head, AL",AL,34.556234,-85.623008,104,102,99,98,94,91,90
0178264,Vance city,Vance,"Vance, AL",AL,33.173992,-87.226627,106,105,104,103,101,100,99
0178312,Vandiver CDP,Vandiver,"Vandiver, AL",AL,33.458856,-86.529222,107,105,104,105,102,100,99
0178480,Vernon town,Vernon,"Vernon, AL",AL,33.758816,-88.114291,110,109,107,106,103,103,102
0178552,Vestavia Hills city,Vestavia Hills,"Vestavia Hills, AL",AL,33.462496,-86.739508,109,106,105,105,103,102,100
0178984,Vina town,Vina,"Vina, AL",AL,34.376175,-88.060572,105,103,102,101,99,98,97
0179008,Vincent town,Vincent,"Vincent, AL",AL,33.383145,-86.402544,110,109,106,106,103,102,102
0179032,Vinegar Bend CDP,Vinegar Bend,"Vinegar Bend, AL",AL,31.259093,-88.367264,105,104,102,105,103,103,105
0179272,Vredenburgh town,Vredenburgh,"Vredenburgh, AL",AL,31.823234,-87.318077,103,101,100,99,99,100,99
0179344,Wadley town,Wadley,"Wadley, AL",AL,33.1234,-85.568592,102,101,99,100,98,97,97
0179488,Waldo town,Waldo,"Waldo, AL",AL,33.387083,-86.041075,105,105,102,102,98,98,96
0179728,Walnut Grove town,Walnut Grove,"Walnut Grove, AL",AL,34.064595,-86.28717,109,107,105,103,101,99,98
0179944,Warrior city,Warrior,"Warrior, AL",AL,33.814858,-86.81565,109,107,106,105,102,101,99
0180064,Waterloo town,Waterloo,"Waterloo, AL",AL,34.917199,-88.064373,106,103,102,98,97,95,94
0180256,Waverly town,Waverly,"Waverly, AL",AL,32.730078,-85.570999,102,100,101,101,97,98,96
0180352,Weaver city,Weaver,"Weaver, AL",AL,33.75907,-85.809363,105,104,101,100,97,96,96
0180376,Webb town,Webb,"Webb, AL",AL,31.257237,-85.289622,100,101,102,102,101,101,102
0180496,Wedowee town,Wedowee,"Wedowee, AL",AL,33.308004,-85.4865,101,99,98,99,95,95,94
0180736,Weogufka CDP,Weogufka,"Weogufka, AL",AL,33.021724,-86.309146,105,105,104,103,101,99,99
0180928,West Blocton town,West Blocton,"West Blocton, AL",AL,33.118176,-87.125225,106,105,104,105,102,102,100
0181084,West End-Cobb Town CDP,West End-Cobb Town,"West End-Cobb Town, AL",AL,33.651481,-85.876553,100,99,97,97,93,93,91
0181336,West Jefferson town,West Jefferson,"West Jefferson, AL",AL,33.673375,-87.040582,107,105,104,103,101,101,99
0181504,Westover town,Westover,"Westover, AL",AL,33.36734,-86.533986,110,109,107,107,105,103,103
0181528,West Point town,West Point,"West Point, AL",AL,34.238735,-86.964017,106,102,101,98,97,96,94
0181720,Wetumpka city,Wetumpka,"Wetumpka, AL",AL,32.540376,-86.206999,106,104,105,106,103,103,103
0181744,Whatley CDP,Whatley,"Whatley, AL",AL,31.646343,-87.710836,102,99,100,101,98,99,99
0181912,White Hall town,White Hall,"White Hall, AL",AL,32.297411,-86.715776,105,103,103,102,101,101,99
0182104,White Plains CDP,White Plains,"White Plains, AL",AL,33.759312,-85.68847,105,105,103,101,100,97,96
0182176,Whitesboro CDP,Whitesboro,"Whitesboro, AL",AL,34.169004,-86.058499,105,102,101,100,97,95,93
0182848,Wilsonville town,Wilsonville,"Wilsonville, AL",AL,33.240752,-86.491105,109,106,106,106,102,102,100
0182872,Wilton town,Wilton,"Wilton, AL",AL,33.081565,-86.879655,109,107,106,106,103,103,101
0182992,Winfield city,Winfield,"Winfield, AL",AL,33.934717,-87.79131,107,106,105,104,101,101,101
0183400,Woodland town,Woodland,"Woodland, AL",AL,33.375627,-85.397439,100,98,97,96,94,92,91
0183640,Woodstock town,Woodstock,"Woodstock, AL",AL,33.217498,-87.148433,105,105,104,102,99,100,99
0183664,Woodville town,Woodville,"Woodville, AL",AL,34.629535,-86.283558,107,105,102,98,97,95,92
0183976,Yellow Bluff town,Yellow Bluff,"Yellow Bluff, AL",AL,31.962341,-87.477359,102,101,100,101,99,100,100
0184096,York city,York,"York, AL",AL,32.500586,-88.291394,105,104,105,105,102,102,100
0200065,Adak city,Adak,"Adak, AK",AK,51.909889,-176.598067,45,47,41,41,39,38,39
0200650,Akhiok city,Akhiok,"Akhiok, AK",AK,56.948329,-154.215306,53,55,56,61,66,65,63
0200760,Akiachak CDP,Akiachak,"Akiachak, AK",AK,60.920991,-161.402199,60,56,62,70,72,71,65
0200870,Akiak city,Akiak,"Akiak, AK",AK,60.912838,-161.216225,60,56,61,69,72,71,65
0201090,Akutan city,Akutan,"Akutan, AK",AK,54.139979,-165.763026,41,41,43,51,52,52,51
0201200,Alakanuk city,Alakanuk,"Alakanuk, AK",AK,62.710997,-164.649719,54,59,60,61,62,61,58
0201305,Alatna CDP,Alatna,"Alatna, AK",AK,66.563353,-152.837612,70,71,70,74,77,78,77
0201390,Alcan Border CDP,Alcan Border,"Alcan Border, AK",AK,62.703078,-141.193584,61,58,64,66,68,69,68
0201420,Aleknagik city,Aleknagik,"Aleknagik, AK",AK,59.288961,-158.664343,57,56,54,64,68,67,64
0201560,Aleneva CDP,Aleneva,"Aleneva, AK",AK,58.059052,-152.909015,44,51,48,52,62,63,59
0201860,Allakaket city,Allakaket,"Allakaket, AK",AK,66.541878,-152.583009,71,71,70,74,77,78,77
0201970,Ambler city,Ambler,"Ambler, AK",AK,67.080903,-157.90558,69,69,69,73,76,77,75
0202080,Anaktuvuk Pass city,Anaktuvuk Pass,"Anaktuvuk Pass, AK",AK,68.149752,-151.697066,58,51,45,61,66,67,64
0203000,Anchorage municipality,Anchorage,"Anchorage, AK",AK,61.17425,-149.284329,48,45,44,51,57,59,54
0203110,Anchor Point CDP,Anchor Point,"Anchor Point, AK",AK,59.747364,-151.695697,57,57,56,61,68,70,65
0203220,Anderson city,Anderson,"Anderson, AK",AK,64.308281,-149.163187,72,69,69,73,76,78,76
0203440,Angoon city,Angoon,"Angoon, AK",AK,57.441257,-134.478357,54,50,54,54,54,53,53
0203550,Aniak city,Aniak,"Aniak, AK",AK,61.57882,-159.547402,63,58,60,67,70,71,66
0203880,Anvik city,Anvik,"Anvik, AK",AK,62.630919,-160.215974,64,63,64,72,74,74,69
0203990,Arctic Village CDP,Arctic Village,"Arctic Village, AK",AK,68.165277,-145.401351,62,58,58,65,69,70,69
0204210,Atka city,Atka,"Atka, AK",AK,52.211547,-174.213454,44,46,41,44,43,42,42
0204430,Atmautluak CDP,Atmautluak,"Atmautluak, AK",AK,60.862755,-162.280302,57,55,54,60,62,60,57
0204500,Atqasuk city,Atqasuk,"Atqasuk, AK",AK,70.480786,-157.325459,38,51,53,60,64,61,58
0204670,Attu Station CDP,Attu Station,"Attu Station, AK",AK,52.880248,173.256076,44,43,38,38,39,40,41
0205000,Badger CDP,Badger,"Badger, AK",AK,64.800081,-147.385129,72,71,69,72,76,78,76
0205585,Bear Creek CDP,Bear Creek,"Bear Creek, AK",AK,60.20806,-149.369779,53,53,51,56,64,65,59
0205750,Beaver CDP,Beaver,"Beaver, AK",AK,66.384745,-147.287756,72,69,70,75,79,80,80
0206245,Beluga CDP,Beluga,"Beluga, AK",AK,61.190862,-151.184237,65,60,61,67,74,75,68
0206520,Bethel city,Bethel,"Bethel, AK",AK,60.793903,-161.795863,60,57,61,69,71,70,64
0206630,Bettles city,Bettles,"Bettles, AK",AK,66.90686,-151.53801,70,69,68,73,75,77,75
0206850,Big Delta CDP,Big Delta,"Big Delta, AK",AK,64.157047,-145.740874,67,68,66,70,73,75,73
0207070,Big Lake CDP,Big Lake,"Big Lake, AK",AK,61.515547,-149.975482,67,63,61,67,72,74,68
0207620,Birch Creek CDP,Birch Creek,"Birch Creek, AK",AK,66.268333,-145.876445,71,68,69,73,78,80,80
0208740,Brevig Mission city,Brevig Mission,"Brevig Mission, AK",AK,65.34313,-166.509537,51,55,60,63,60,62,60
0209600,Buckland city,Buckland,"Buckland, AK",AK,65.977236,-161.138619,64,64,60,68,73,72,70
0209657,Buffalo Soapstone CDP,Buffalo Soapstone,"Buffalo Soapstone, AK",AK,61.684439,-149.121172,63,59,60,65,71,72,67
0209710,Butte CDP,Butte,"Butte, AK",AK,61.533915,-148.987811,67,62,65,70,76,77,72
0210150,Cantwell CDP,Cantwell,"Cantwell, AK",AK,63.411396,-148.749621,62,61,62,65,68,70,67
0211690,Central CDP,Central,"Central, AK",AK,65.508601,-144.61994,65,63,65,71,76,78,78
0211800,Chalkyitsik CDP,Chalkyitsik,"Chalkyitsik, AK",AK,66.646806,-143.788344,68,65,67,73,78,80,80
0212350,Chase CDP,Chase,"Chase, AK",AK,62.418236,-149.936172,66,63,60,67,74,75,68
0212680,Chefornak city,Chefornak,"Chefornak, AK",AK,60.151941,-164.252067,58,51,60,65,66,64,60
0212920,Chena Ridge CDP,Chena Ridge,"Chena Ridge, AK",AK,64.794305,-148.032883,73,71,69,73,76,78,76
0212970,Chenega CDP,Chenega,"Chenega, AK",AK,60.091953,-147.994698,52,53,53,53,58,59,55
0213230,Chevak city,Chevak,"Chevak, AK",AK,61.52956,-165.594126,55,57,62,64,65,63,59
0213340,Chickaloon CDP,Chickaloon,"Chickaloon, AK",AK,61.815283,-148.291957,54,51,48,55,59,61,57
0213450,Chicken CDP,Chicken,"Chicken, AK",AK,64.087691,-141.828278,60,60,64,68,71,73,71
0213550,Chignik city,Chignik,"Chignik, AK",AK,56.29518,-158.391784,52,54,55,63,67,66,64
0213670,Chignik Lagoon CDP,Chignik Lagoon,"Chignik Lagoon, AK",AK,56.304267,-158.500259,51,52,52,59,64,63,60
0213780,Chignik Lake CDP,Chignik Lake,"Chignik Lake, AK",AK,56.273221,-158.793376,52,55,54,62,66,65,62
0213860,Chiniak CDP,Chiniak,"Chiniak, AK",AK,57.575497,-152.279033,51,55,56,57,66,68,62
0213890,Chisana CDP,Chisana,"Chisana, AK",AK,62.110041,-142.050549,54,55,62,63,65,67,66
0214000,Chistochina CDP,Chistochina,"Chistochina, AK",AK,62.596444,-144.941045,60,60,61,65,71,71,67
0214110,Chitina CDP,Chitina,"Chitina, AK",AK,61.553028,-144.175116,58,58,62,67,73,72,67
0214330,Chuathbaluk city,Chuathbaluk,"Chuathbaluk, AK",AK,61.573919,-159.246921,64,59,61,70,73,74,68
0214880,Circle CDP,Circle,"Circle, AK",AK,65.790425,-144.196008,66,64,66,70,74,76,76
0215320,Clam Gulch CDP,Clam Gulch,"Clam Gulch, AK",AK,60.208887,-151.404203,55,56,55,60,64,66,61
0215430,Clark's Point city,Clark's Point,"Clark's Point, AK",AK,58.832992,-158.527347,53,53,48,57,59,59,56
0216360,Coffman Cove city,Coffman Cove,"Coffman Cove, AK",AK,56.001661,-132.841966,62,55,60,60,59,59,59
0216420,Cohoe CDP,Cohoe,"Cohoe, AK",AK,60.266971,-151.298172,59,60,59,65,70,72,66
0216530,Cold Bay city,Cold Bay,"Cold Bay, AK",AK,55.215515,-162.775546,51,51,52,57,59,57,54
0216630,Coldfoot CDP,Coldfoot,"Coldfoot, AK",AK,67.260741,-150.069894,61,59,58,63,66,66,65
0216750,College CDP,College,"College, AK",AK,64.86729,-147.819453,73,71,69,73,76,78,76
0217190,Cooper Landing CDP,Cooper Landing,"Cooper Landing, AK",AK,60.494579,-149.843945,65,63,61,68,75,77,72
0217300,Copper Center CDP,Copper Center,"Copper Center, AK",AK,62.001096,-145.363956,63,62,62,68,72,72,68
0217410,Cordova city,Cordova,"Cordova, AK",AK,60.530046,-145.641872,52,53,52,53,57,57,54
0217670,Covenant Life CDP,Covenant Life,"Covenant Life, AK",AK,59.397505,-136.123002,54,54,56,57,59,57,55
0217740,Craig city,Craig,"Craig, AK",AK,55.488746,-133.111568,62,58,61,62,61,61,61
0217850,Crooked Creek CDP,Crooked Creek,"Crooked Creek, AK",AK,61.796692,-158.080942,62,58,56,66,69,70,66
0217960,Crown Point CDP,Crown Point,"Crown Point, AK",AK,60.426679,-149.35298,56,54,52,56,65,66,61
0218510,Deering city,Deering,"Deering, AK",AK,66.069488,-162.764572,56,60,59,66,70,69,68
0218620,Delta Junction city,Delta Junction,"Delta Junction, AK",AK,64.057347,-145.699997,67,68,66,70,73,75,73
0218675,Deltana CDP,Deltana,"Deltana, AK",AK,63.78934,-145.351625,45,44,44,47,53,55,53
0218805,Denali Park CDP,Denali Park,"Denali Park, AK",AK,63.573017,-148.673705,60,58,57,60,63,65,62
0218925,Diamond Ridge CDP,Diamond Ridge,"Diamond Ridge, AK",AK,59.702361,-151.554623,57,57,55,61,68,71,65
0218950,Dillingham city,Dillingham,"Dillingham, AK",AK,59.060467,-158.532251,57,54,56,66,71,70,67
0219060,Diomede city,Diomede,"Diomede, AK",AK,65.753924,-168.922577,26,28,34,41,39,40,38
0219720,Dot Lake CDP,Dot Lake,"Dot Lake, AK",AK,63.587223,-144.292361,57,56,58,61,63,65,64
0219750,Dot Lake Village CDP,Dot Lake Village,"Dot Lake Village, AK",AK,63.662593,-144.016171,62,62,66,68,70,73,71
0220020,Dry Creek CDP,Dry Creek,"Dry Creek, AK",AK,63.626638,-144.639194,51,46,49,52,54,57,55
0220380,Eagle city,Eagle,"Eagle, AK",AK,64.781256,-141.197829,60,58,66,70,73,76,74
0220600,Eagle Village CDP,Eagle Village,"Eagle Village, AK",AK,64.743389,-141.113834,57,56,61,65,68,70,69
0220716,Eareckson Station CDP,Eareckson Station,"Eareckson Station, AK",AK,52.72106,174.107149,44,44,37,38,39,39,40
0220970,Edna Bay city,Edna Bay,"Edna Bay, AK",AK,55.967618,-133.692253,57,54,59,58,57,57,57
0221040,Eek city,Eek,"Eek, AK",AK,60.216279,-162.042513,58,55,58,66,69,67,62
0221150,Egegik city,Egegik,"Egegik, AK",AK,58.205148,-157.521978,46,43,43,52,53,53,46
0221370,Eielson AFB CDP,Eielson AFB,"Eielson AFB, AK",AK,64.673393,-147.059673,72,70,68,72,75,78,76
0221810,Ekwok city,Ekwok,"Ekwok, AK",AK,59.3458,-157.487021,59,58,55,66,72,71,67
0222140,Elfin Cove CDP,Elfin Cove,"Elfin Cove, AK",AK,58.087681,-136.288309,54,54,56,57,58,57,56
0222250,Elim city,Elim,"Elim, AK",AK,64.618373,-162.276244,60,67,65,68,69,71,70
0222910,Emmonak city,Emmonak,"Emmonak, AK",AK,62.77559,-164.50929,54,60,61,62,63,62,59
0223460,Ester CDP,Ester,"Ester, AK",AK,64.879056,-148.041153,66,64,62,65,69,71,69
0223720,Eureka Roadhouse CDP,Eureka Roadhouse,"Eureka Roadhouse, AK",AK,61.958507,-147.155104,55,54,52,58,61,63,60
0223790,Evansville CDP,Evansville,"Evansville, AK",AK,66.932933,-151.37006,69,68,66,71,74,75,74
0223900,Excursion Inlet CDP,Excursion Inlet,"Excursion Inlet, AK",AK,58.415144,-135.345462,36,36,41,39,42,40,38
0224230,Fairbanks city,Fairbanks,"Fairbanks, AK",AK,64.836531,-147.651745,73,71,70,74,77,79,77
0224660,False Pass city,False Pass,"False Pass, AK",AK,54.872441,-163.334268,43,44,42,46,51,51,44
0224980,Farmers Loop CDP,Farmers Loop,"Farmers Loop, AK",AK,64.908228,-147.698608,71,70,68,71,74,77,74
0225000,Farm Loop CDP,Farm Loop,"Farm Loop, AK",AK,61.635115,-149.155223,63,59,60,65,70,72,67
0225220,Ferry CDP,Ferry,"Ferry, AK",AK,64.04962,-148.920602,64,63,61,64,67,70,67
0225550,Fishhook CDP,Fishhook,"Fishhook, AK",AK,61.731248,-149.283642,62,58,57,63,69,70,65
0225880,Flat CDP,Flat,"Flat, AK",AK,62.441359,-158.04055,63,62,60,68,71,73,68
0226100,Fort Greely CDP,Fort Greely,"Fort Greely, AK",AK,63.967834,-145.714882,65,66,65,69,72,74,72
0226760,Fort Yukon city,Fort Yukon,"Fort Yukon, AK",AK,66.582533,-145.247437,70,67,68,73,77,80,80
0226835,Four Mile Road CDP,Four Mile Road,"Four Mile Road, AK",AK,64.605595,-149.115005,73,73,69,72,75,77,75
0226870,Fox CDP,Fox,"Fox, AK",AK,64.974859,-147.609007,67,65,63,66,70,72,70
0226910,Fox River CDP,Fox River,"Fox River, AK",AK,59.892246,-151.012379,57,57,54,59,66,69,63
0227090,Fritz Creek CDP,Fritz Creek,"Fritz Creek, AK",AK,59.746867,-151.288605,56,56,54,59,68,70,64
0227145,Funny River CDP,Funny River,"Funny River, AK",AK,60.484313,-150.788736,64,62,61,66,72,74,68
0227420,Gakona CDP,Gakona,"Gakona, AK",AK,62.368038,-145.305188,61,61,61,66,71,72,67
0227530,Galena city,Galena,"Galena, AK",AK,64.741422,-156.873394,69,72,69,74,77,78,75
0227640,Gambell city,Gambell,"Gambell, AK",AK,63.775756,-171.723441,28,34,40,41,39,39,38
0227700,Game Creek CDP,Game Creek,"Game Creek, AK",AK,58.050105,-135.512547,54,51,54,56,56,54,54
0228200,Gateway CDP,Gateway,"Gateway, AK",AK,61.566855,-149.222679,66,62,62,68,73,75,70
0228590,Glacier View CDP,Glacier View,"Glacier View, AK",AK,61.848035,-147.772591,52,46,46,56,58,60,57
0228740,Glennallen CDP,Glennallen,"Glennallen, AK",AK,62.153307,-145.840752,60,60,58,64,68,69,65
0229130,Goldstream CDP,Goldstream,"Goldstream, AK",AK,64.942151,-148.02732,68,66,64,68,71,74,71
0229180,Golovin city,Golovin,"Golovin, AK",AK,64.560222,-163.007163,59,66,65,66,66,68,65
0229290,Goodnews Bay city,Goodnews Bay,"Goodnews Bay, AK",AK,59.127701,-161.564432,55,52,57,66,69,67,61
0230060,Grayling city,Grayling,"Grayling, AK",AK,62.89605,-160.112977,59,61,59,67,68,69,65
0230500,Gulkana CDP,Gulkana,"Gulkana, AK",AK,62.215434,-145.444965,62,62,62,67,72,72,68
0230940,Gustavus city,Gustavus,"Gustavus, AK",AK,58.434657,-135.728152,55,56,58,59,61,59,58
0231050,Haines CDP,Haines,"Haines, AK",AK,59.260434,-135.472169,56,57,59,60,63,60,59
0231270,Halibut Cove CDP,Halibut Cove,"Halibut Cove, AK",AK,59.569581,-151.223764,58,58,60,63,70,73,68
0231710,Happy Valley CDP,Happy Valley,"Happy Valley, AK",AK,59.898514,-151.528868,56,57,54,60,67,69,63
0231765,Harding-Birch Lakes CDP,Harding-Birch Lakes,"Harding-Birch Lakes, AK",AK,64.381305,-146.530599,69,69,67,71,74,77,74
0232150,Healy CDP,Healy,"Healy, AK",AK,63.959632,-148.970842,63,61,60,62,65,68,65
0232310,Healy Lake CDP,Healy Lake,"Healy Lake, AK",AK,64.009705,-144.681574,62,63,64,67,69,72,69
0232550,Hobart Bay CDP,Hobart Bay,"Hobart Bay, AK",AK,57.417759,-133.306569,55,52,55,56,56,55,54
0232810,Hollis CDP,Hollis,"Hollis, AK",AK,55.515474,-132.701922,66,57,61,63,61,61,61
0233030,Holy Cross city,Holy Cross,"Holy Cross, AK",AK,62.185111,-159.858814,61,59,62,69,71,71,67
0233140,Homer city,Homer,"Homer, AK",AK,59.647503,-151.513095,59,59,58,62,68,71,66
0233360,Hoonah city,Hoonah,"Hoonah, AK",AK,58.12201,-135.431474,55,55,56,58,57,56,56
0233470,Hooper Bay city,Hooper Bay,"Hooper Bay, AK",AK,61.509167,-166.111471,44,51,44,51,52,52,44
0233580,Hope CDP,Hope,"Hope, AK",AK,60.886124,-149.632991,63,61,60,65,71,74,69
0233800,Houston city,Houston,"Houston, AK",AK,61.615303,-149.80061,68,63,61,67,73,75,69
0233910,Hughes city,Hughes,"Hughes, AK",AK,66.045217,-154.237627,71,73,72,77,80,80,79
0234350,Huslia city,Huslia,"Huslia, AK",AK,65.696198,-156.338336,69,72,70,74,77,78,76
0234460,Hydaburg city,Hydaburg,"Hydaburg, AK",AK,55.205842,-132.820438,58,53,57,57,56,56,57
0234570,Hyder CDP,Hyder,"Hyder, AK",AK,55.98153,-130.038166,68,62,67,69,69,68,66
0234790,Igiugig CDP,Igiugig,"Igiugig, AK",AK,59.300989,-155.863275,58,56,54,63,70,70,66
0235120,Iliamna CDP,Iliamna,"Iliamna, AK",AK,59.778342,-154.883752,58,56,56,64,70,71,66
0235890,Ivanof Bay CDP,Ivanof Bay,"Ivanof Bay, AK",AK,55.918199,-159.493298,54,55,56,62,65,65,64
0236400,Juneau city and borough,Juneau,"Juneau, AK",AK,58.37291,-134.178445,51,49,53,55,56,54,53
0236540,Kachemak city,Kachemak,"Kachemak, AK",AK,59.674535,-151.436347,60,60,59,64,71,74,69
0236770,Kake city,Kake,"Kake, AK",AK,56.97532,-133.903663,59,54,59,59,59,58,58
0236990,Kaktovik city,Kaktovik,"Kaktovik, AK",AK,70.121017,-143.630251,33,30,27,37,43,43,38
0237250,Kalifornsky CDP,Kalifornsky,"Kalifornsky, AK",AK,60.453399,-151.220302,58,58,58,63,66,68,63
0237430,Kaltag city,Kaltag,"Kaltag, AK",AK,64.314143,-158.778761,67,71,68,74,76,77,73
0237540,Karluk CDP,Karluk,"Karluk, AK",AK,57.590981,-154.363413,49,51,51,55,61,62,59
0237650,Kasaan city,Kasaan,"Kasaan, AK",AK,55.561147,-132.406834,64,55,61,62,61,60,61
0237975,Kasigluk CDP,Kasigluk,"Kasigluk, AK",AK,60.863834,-162.536564,62,56,63,69,72,70,65
0238090,Kasilof CDP,Kasilof,"Kasilof, AK",AK,60.319466,-151.232794,60,60,60,66,70,72,67
0238420,Kenai city,Kenai,"Kenai, AK",AK,60.56224,-151.20806,60,59,60,66,70,71,65
0238910,Kenny Lake CDP,Kenny Lake,"Kenny Lake, AK",AK,61.621616,-144.821315,48,48,45,53,58,58,54
0238970,Ketchikan city,Ketchikan,"Ketchikan, AK",AK,55.357145,-131.674552,64,57,61,63,61,61,61
0239300,Kiana city,Kiana,"Kiana, AK",AK,66.972586,-160.434365,67,69,69,72,73,74,72
0239410,King Cove city,King Cove,"King Cove, AK",AK,55.084993,-162.316806,43,44,51,57,58,58,56
0239630,King Salmon CDP,King Salmon,"King Salmon, AK",AK,58.72572,-156.535989,56,53,52,63,68,68,63
0239740,Kipnuk CDP,Kipnuk,"Kipnuk, AK",AK,59.93396,-164.092783,54,42,55,59,60,59,55
0239960,Kivalina city,Kivalina,"Kivalina, AK",AK,67.735978,-164.511763,53,55,56,56,52,53,52
0240400,Klawock city,Klawock,"Klawock, AK",AK,55.556425,-133.08613,64,59,62,63,62,62,62
0240510,Klukwan CDP,Klukwan,"Klukwan, AK",AK,59.401834,-135.882427,56,57,60,60,62,60,58
0240645,Knik-Fairview CDP,Knik-Fairview,"Knik-Fairview, AK",AK,61.507645,-149.622601,66,62,61,67,72,73,68
0240670,Knik River CDP,Knik River,"Knik River, AK",AK,61.461903,-149.007489,43,41,38,44,47,51,45
0240840,Kobuk city,Kobuk,"Kobuk, AK",AK,66.917007,-156.914456,70,71,70,73,76,78,75
0240950,Kodiak city,Kodiak,"Kodiak, AK",AK,57.791192,-152.419712,45,52,52,52,62,63,58
0241210,Kodiak Station CDP,Kodiak Station,"Kodiak Station, AK",AK,57.76795,-152.595907,41,48,46,45,60,61,56
0241280,Kokhanok CDP,Kokhanok,"Kokhanok, AK",AK,59.412109,-154.746007,57,56,55,62,68,70,65
0241500,Koliganek CDP,Koliganek,"Koliganek, AK",AK,59.695234,-157.219902,59,58,55,65,71,71,67
0241610,Kongiganak CDP,Kongiganak,"Kongiganak, AK",AK,59.991557,-162.844577,61,55,59,67,68,66,63
0241720,Kotlik city,Kotlik,"Kotlik, AK",AK,63.02919,-163.536654,57,61,60,64,64,64,62
0241830,Kotzebue city,Kotzebue,"Kotzebue, AK",AK,66.886842,-162.49173,64,74,70,69,73,73,71
0241940,Koyuk city,Koyuk,"Koyuk, AK",AK,64.939944,-161.120908,66,71,69,73,74,77,71
0242050,Koyukuk city,Koyukuk,"Koyukuk, AK",AK,64.902073,-157.693531,69,72,70,75,77,78,76
0242160,Kupreanof city,Kupreanof,"Kupreanof, AK",AK,56.821295,-132.972152,57,55,58,58,58,57,56
0242380,Kwethluk city,Kwethluk,"Kwethluk, AK",AK,60.79333,-161.430966,60,57,61,69,72,70,64
0242490,Kwigillingok CDP,Kwigillingok,"Kwigillingok, AK",AK,59.877575,-163.177317,59,54,60,66,67,66,62
0242805,Lake Louise CDP,Lake Louise,"Lake Louise, AK",AK,62.30162,-146.540163,56,57,52,57,61,62,58
0242820,Lake Minchumina CDP,Lake Minchumina,"Lake Minchumina, AK",AK,63.789761,-152.462314,70,71,68,73,76,79,75
0243040,Larsen Bay city,Larsen Bay,"Larsen Bay, AK",AK,57.529893,-154.001155,47,46,44,46,55,57,55
0243260,Lazy Mountain CDP,Lazy Mountain,"Lazy Mountain, AK",AK,61.658227,-148.925582,62,58,59,64,69,71,66
0243810,Levelock CDP,Levelock,"Levelock, AK",AK,59.068246,-156.901021,58,56,53,65,69,69,64
0244030,Lime Village CDP,Lime Village,"Lime Village, AK",AK,61.330449,-155.238066,69,64,63,73,77,79,73
0244580,Livengood CDP,Livengood,"Livengood, AK",AK,65.481785,-148.416484,71,67,67,71,75,77,75
0245020,Loring CDP,Loring,"Loring, AK",AK,55.606677,-131.639977,60,53,56,59,57,56,56
0245295,Lowell Point CDP,Lowell Point,"Lowell Point, AK",AK,60.076063,-149.493807,42,44,41,48,57,58,52
0245460,Lower Kalskag city,Lower Kalskag,"Lower Kalskag, AK",AK,61.514721,-160.358532,63,57,63,71,74,74,68
0245700,Lutak CDP,Lutak,"Lutak, AK",AK,59.412212,-135.589046,32,31,36,36,38,38,36
0245790,McCarthy CDP,McCarthy,"McCarthy, AK",AK,61.453957,-142.864693,55,54,57,64,68,67,63
0246010,McGrath city,McGrath,"McGrath, AK",AK,62.940607,-155.566409,69,69,64,72,75,77,73
0246780,Manley Hot Springs CDP,Manley Hot Springs,"Manley Hot Springs, AK",AK,65.018747,-150.645255,72,72,70,73,76,78,76
0246890,Manokotak city,Manokotak,"Manokotak, AK",AK,58.727293,-158.906445,54,52,54,63,66,65,62
0247000,Marshall city,Marshall,"Marshall, AK",AK,61.871555,-162.06087,61,59,64,70,71,70,66
0247735,Meadow Lakes CDP,Meadow Lakes,"Meadow Lakes, AK",AK,61.637987,-149.609611,66,62,61,67,72,74,69
0247990,Mekoryuk city,Mekoryuk,"Mekoryuk, AK",AK,60.370272,-166.267711,52,41,45,52,53,52,46
0248200,Mendeltna CDP,Mendeltna,"Mendeltna, AK",AK,62.146098,-146.758031,58,58,54,60,64,66,62
0248540,Mentasta Lake CDP,Mentasta Lake,"Mentasta Lake, AK",AK,63.011677,-143.561486,38,38,38,41,42,44,42
0248590,Mertarvik CDP,Mertarvik,"Mertarvik, AK",AK,60.810993,-164.49911,58,51,59,65,66,64,60
0248870,Metlakatla CDP,Metlakatla,"Metlakatla, AK",AK,55.114608,-131.555585,62,55,58,60,58,59,59
0249200,Mill Bay CDP,Mill Bay,"Mill Bay, AK",AK,57.815501,-152.367542,48,54,53,54,62,63,58
0249530,Minto CDP,Minto,"Minto, AK",AK,65.088678,-149.592112,72,70,69,73,76,78,76
0250080,Moose Creek CDP,Moose Creek,"Moose Creek, AK",AK,64.716349,-147.166627,72,70,68,72,75,78,76
0250190,Moose Pass CDP,Moose Pass,"Moose Pass, AK",AK,60.505936,-149.468361,57,55,55,58,67,68,63
0250800,Mosquito Lake CDP,Mosquito Lake,"Mosquito Lake, AK",AK,59.475103,-136.199106,35,37,41,42,46,44,41
0251180,Mountain Village city,Mountain Village,"Mountain Village, AK",AK,62.091906,-163.695257,58,59,64,68,69,67,64
0251455,Mud Bay CDP,Mud Bay,"Mud Bay, AK",AK,59.151183,-135.356493,55,55,56,57,59,57,56
0251960,Nabesna CDP,Nabesna,"Nabesna, AK",AK,62.496548,-143.00743,40,41,41,46,52,53,51
0252060,Naknek CDP,Naknek,"Naknek, AK",AK,58.788156,-156.872821,57,53,54,64,67,67,62
0252210,Nanwalek CDP,Nanwalek,"Nanwalek, AK",AK,59.333848,-151.929558,59,60,63,66,73,75,72
0252390,Napakiak city,Napakiak,"Napakiak, AK",AK,60.690587,-161.986627,60,56,60,68,70,69,63
0252720,Napaskiak city,Napaskiak,"Napaskiak, AK",AK,60.703217,-161.750817,60,57,61,69,71,69,64
0252845,Naukati Bay CDP,Naukati Bay,"Naukati Bay, AK",AK,55.874121,-133.195015,60,55,59,58,57,57,57
0252915,Nelchina CDP,Nelchina,"Nelchina, AK",AK,62.010403,-146.829938,53,52,46,54,58,60,56
0252940,Nelson Lagoon CDP,Nelson Lagoon,"Nelson Lagoon, AK",AK,55.836649,-161.635799,45,45,52,57,59,57,54
0253050,Nenana city,Nenana,"Nenana, AK",AK,64.536054,-149.083629,72,72,69,72,75,77,75
0253270,Newhalen city,Newhalen,"Newhalen, AK",AK,59.737057,-154.902414,59,56,57,65,72,72,67
0253710,New Stuyahok city,New Stuyahok,"New Stuyahok, AK",AK,59.49428,-157.287243,57,57,53,64,70,69,66
0253820,Newtok CDP,Newtok,"Newtok, AK",AK,60.935069,-164.645682,59,53,61,66,68,66,61
0253930,Nightmute city,Nightmute,"Nightmute, AK",AK,60.462401,-164.83464,57,52,59,63,65,63,59
0254050,Nikiski CDP,Nikiski,"Nikiski, AK",AK,60.725015,-151.225268,61,59,63,68,73,74,68
0254085,Nikolaevsk CDP,Nikolaevsk,"Nikolaevsk, AK",AK,59.829553,-151.596382,56,56,54,60,67,69,63
0254150,Nikolai city,Nikolai,"Nikolai, AK",AK,63.007747,-154.375082,70,71,66,73,76,79,74
0254260,Nikolski CDP,Nikolski,"Nikolski, AK",AK,53.007863,-168.718502,44,43,46,51,52,52,51
0254480,Ninilchik CDP,Ninilchik,"Ninilchik, AK",AK,60.061292,-151.404185,57,58,56,62,69,71,65
0254700,Noatak CDP,Noatak,"Noatak, AK",AK,67.589149,-163.011826,64,66,67,69,68,69,67
0254920,Nome city,Nome,"Nome, AK",AK,64.505741,-165.415287,56,64,63,64,62,64,61
0255030,Nondalton city,Nondalton,"Nondalton, AK",AK,59.975246,-154.866046,60,56,55,64,70,72,67
0255140,Noorvik city,Noorvik,"Noorvik, AK",AK,66.828034,-161.043899,69,74,72,73,75,76,74
0255745,North Lakes CDP,North Lakes,"North Lakes, AK",AK,61.618378,-149.310724,65,61,61,66,71,73,68
0255910,North Pole city,North Pole,"North Pole, AK",AK,64.752728,-147.362655,72,71,68,72,75,78,75
0256220,Northway CDP,Northway,"Northway, AK",AK,63.000776,-141.541256,55,53,58,61,64,65,63
0256320,Nuiqsut city,Nuiqsut,"Nuiqsut, AK",AK,70.21258,-151.025076,40,52,42,63,68,66,62
0256350,Nulato city,Nulato,"Nulato, AK",AK,64.691283,-158.27535,65,68,64,70,72,73,70
0256600,Nunam Iqua city,Nunam Iqua,"Nunam Iqua, AK",AK,62.506887,-164.900554,53,57,57,59,60,59,56
0256680,Nunapitchuk city,Nunapitchuk,"Nunapitchuk, AK",AK,60.879272,-162.462306,62,57,62,69,72,70,65
0257340,Old Harbor city,Old Harbor,"Old Harbor, AK",AK,57.218798,-153.329674,48,53,51,54,62,63,59
0258330,Oscarville CDP,Oscarville,"Oscarville, AK",AK,60.732087,-161.77692,60,57,61,69,71,70,64
0258550,Ouzinkie city,Ouzinkie,"Ouzinkie, AK",AK,57.92466,-152.462388,52,56,56,58,66,67,62
0258660,Palmer city,Palmer,"Palmer, AK",AK,61.597166,-149.114683,64,60,61,65,70,72,67
0259320,Paxson CDP,Paxson,"Paxson, AK",AK,62.975706,-145.757621,59,57,56,62,67,68,64
0259540,Pedro Bay CDP,Pedro Bay,"Pedro Bay, AK",AK,59.789215,-154.125718,63,60,60,69,74,75,69
0259650,Pelican city,Pelican,"Pelican, AK",AK,57.959229,-136.215066,56,55,59,59,61,59,58
0260200,Perryville CDP,Perryville,"Perryville, AK",AK,55.934456,-159.155754,55,57,56,61,65,64,63
0260310,Petersburg CDP,Petersburg,"Petersburg, AK",AK,56.756918,-132.874938,62,55,59,61,60,59,58
0260460,Petersville CDP,Petersville,"Petersville, AK",AK,62.453484,-150.884124,57,53,51,59,65,66,60
0260640,Pilot Point city,Pilot Point,"Pilot Point, AK",AK,57.541137,-157.722807,52,51,52,57,60,60,57
0260750,Pilot Station city,Pilot Station,"Pilot Station, AK",AK,61.948167,-162.872648,60,59,64,69,71,69,65
0260860,Pitkas Point CDP,Pitkas Point,"Pitkas Point, AK",AK,62.037403,-163.268128,57,57,61,66,67,65,61
0261080,Platinum city,Platinum,"Platinum, AK",AK,58.952583,-161.747032,46,42,52,59,62,60,55
0261120,Pleasant Valley CDP,Pleasant Valley,"Pleasant Valley, AK",AK,64.885468,-146.89855,70,68,67,71,74,76,74
0261190,Point Baker CDP,Point Baker,"Point Baker, AK",AK,56.348132,-133.616794,60,56,58,59,59,58,58
0261630,Point Hope city,Point Hope,"Point Hope, AK",AK,68.344155,-166.680386,33,32,38,47,46,46,43
0261700,Point Lay CDP,Point Lay,"Point Lay, AK",AK,69.737127,-162.835044,32,33,34,46,51,51,44
0261788,Point MacKenzie CDP,Point MacKenzie,"Point MacKenzie, AK",AK,61.3427,-150.048525,67,63,62,68,73,75,70
0261825,Point Possession CDP,Point Possession,"Point Possession, AK",AK,60.923081,-150.688844,62,61,61,66,70,72,67
0262125,Pope-Vannoy Landing CDP,Pope-Vannoy Landing,"Pope-Vannoy Landing, AK",AK,59.570602,-154.447236,60,58,58,65,71,73,67
0262285,Portage Creek CDP,Portage Creek,"Portage Creek, AK",AK,58.90542,-157.669817,56,55,53,64,68,67,63
0262510,Port Alexander city,Port Alexander,"Port Alexander, AK",AK,56.237593,-134.65275,60,58,61,61,61,60,60
0262620,Port Alsworth CDP,Port Alsworth,"Port Alsworth, AK",AK,60.15673,-154.33961,65,60,61,69,75,77,72
0263170,Port Clarence CDP,Port Clarence,"Port Clarence, AK",AK,65.109221,-166.764488,45,55,58,57,56,58,57
0263280,Port Graham CDP,Port Graham,"Port Graham, AK",AK,59.339803,-151.846498,51,52,54,56,63,65,61
0263390,Port Heiden city,Port Heiden,"Port Heiden, AK",AK,56.965241,-158.586416,45,43,43,54,58,57,54
0263610,Port Lions city,Port Lions,"Port Lions, AK",AK,57.867012,-152.856248,51,55,52,54,63,64,60
0263870,Port Protection CDP,Port Protection,"Port Protection, AK",AK,56.331881,-133.60642,57,53,55,56,56,55,55
0264240,Primrose CDP,Primrose,"Primrose, AK",AK,60.341624,-149.296448,62,61,61,65,74,75,70
0264380,Prudhoe Bay CDP,Prudhoe Bay,"Prudhoe Bay, AK",AK,70.365858,-148.749804,33,35,35,53,55,52,42
0264600,Quinhagak city,Quinhagak,"Quinhagak, AK",AK,59.751279,-161.897243,53,51,53,59,61,60,57
0264820,Rampart CDP,Rampart,"Rampart, AK",AK,65.404915,-149.921015,63,61,59,63,66,68,67
0264930,Red Devil CDP,Red Devil,"Red Devil, AK",AK,61.757421,-157.358548,64,60,59,70,73,75,70
0264980,Red Dog Mine CDP,Red Dog Mine,"Red Dog Mine, AK",AK,68.046903,-162.872123,64,66,69,73,73,73,71
0265345,Ridgeway CDP,Ridgeway,"Ridgeway, AK",AK,60.530833,-151.052101,61,60,60,66,70,72,66
0265590,Ruby city,Ruby,"Ruby, AK",AK,64.72329,-155.50054,69,71,68,74,77,78,75
0265700,Russian Mission city,Russian Mission,"Russian Mission, AK",AK,61.785171,-161.367297,59,57,61,68,70,70,65
0265800,St. George city,St. George,"St. George, AK",AK,56.571044,-169.65994,42,38,44,44,44,43,43
0266140,St. Mary's city,St. Mary's,"St. Mary's, AK",AK,62.062775,-163.244257,57,57,62,66,68,66,62
0266360,St. Michael city,St. Michael,"St. Michael, AK",AK,63.458525,-162.134371,59,64,62,65,66,66,64
0266470,St. Paul city,St. Paul,"St. Paul, AK",AK,57.179076,-170.322824,44,42,47,51,52,52,51
0266510,Salamatof CDP,Salamatof,"Salamatof, AK",AK,60.604229,-151.311311,54,53,53,56,59,60,56
0266550,Salcha CDP,Salcha,"Salcha, AK",AK,64.534103,-146.88362,70,69,67,71,74,77,75
0267020,Sand Point city,Sand Point,"Sand Point, AK",AK,55.31347,-160.484344,51,52,53,58,60,60,59
0267460,Savoonga city,Savoonga,"Savoonga, AK",AK,63.679706,-170.483324,29,31,39,47,44,44,41
0267570,Saxman city,Saxman,"Saxman, AK",AK,55.323145,-131.589165,64,57,61,63,61,61,61
0267680,Scammon Bay city,Scammon Bay,"Scammon Bay, AK",AK,61.841929,-165.583279,51,54,55,58,59,58,54
0268230,Selawik city,Selawik,"Selawik, AK",AK,66.602596,-159.998857,65,67,64,67,72,72,70
0268340,Seldovia city,Seldovia,"Seldovia, AK",AK,59.43948,-151.710387,56,58,57,60,68,70,66
0268370,Seldovia Village CDP,Seldovia Village,"Seldovia Village, AK",AK,59.46127,-151.588755,54,55,53,57,64,67,62
0268560,Seward city,Seward,"Seward, AK",AK,60.124786,-149.391581,52,53,51,55,61,63,58
0268670,Shageluk city,Shageluk,"Shageluk, AK",AK,62.676038,-159.561841,64,64,64,72,74,74,70
0268890,Shaktoolik city,Shaktoolik,"Shaktoolik, AK",AK,64.356255,-161.19622,59,66,65,66,67,69,64
0269770,Shishmaref city,Shishmaref,"Shishmaref, AK",AK,66.232848,-166.125642,36,34,34,45,46,45,44
0270100,Shungnak city,Shungnak,"Shungnak, AK",AK,66.885093,-157.174634,69,69,68,71,74,75,73
0270320,Silver Springs CDP,Silver Springs,"Silver Springs, AK",AK,62.019311,-145.358311,63,62,63,68,73,73,69
0270540,Sitka city and borough,Sitka,"Sitka, AK",AK,57.193204,-135.367396,56,54,57,57,58,57,56
0270760,Skagway CDP,Skagway,"Skagway, AK",AK,59.464464,-135.275743,63,65,68,69,72,70,68
0270870,Skwentna CDP,Skwentna,"Skwentna, AK",AK,61.888689,-151.199994,69,66,62,70,77,79,72
0270930,Slana CDP,Slana,"Slana, AK",AK,62.603573,-143.455303,52,52,53,57,62,63,59
0271090,Sleetmute CDP,Sleetmute,"Sleetmute, AK",AK,61.654462,-157.10249,67,63,62,72,75,77,72
0271640,Soldotna city,Soldotna,"Soldotna, AK",AK,60.485318,-151.069014,62,61,60,66,71,72,67
0272135,South Lakes CDP,South Lakes,"South Lakes, AK",AK,61.587561,-149.315544,64,61,61,66,71,73,67
0272190,South Naknek CDP,South Naknek,"South Naknek, AK",AK,58.662786,-156.984077,56,53,54,64,67,67,62
0272230,South Van Horn CDP,South Van Horn,"South Van Horn, AK",AK,64.809726,-147.787779,73,71,69,73,76,79,77
0272960,Stebbins city,Stebbins,"Stebbins, AK",AK,63.473358,-162.259966,59,64,62,65,65,66,63
0272985,Steele Creek CDP,Steele Creek,"Steele Creek, AK",AK,64.925613,-147.435058,71,69,66,70,73,76,73
0273070,Sterling CDP,Sterling,"Sterling, AK",AK,60.540148,-150.80526,64,62,60,66,72,74,67
0273290,Stevens Village CDP,Stevens Village,"Stevens Village, AK",AK,66.02432,-149.077801,73,69,70,74,77,79,78
0273400,Stony River CDP,Stony River,"Stony River, AK",AK,61.792749,-156.590554,69,64,64,74,78,80,74
0273950,Sunrise CDP,Sunrise,"Sunrise, AK",AK,60.870068,-149.467798,64,61,61,65,72,74,69
0274340,Susitna CDP,Susitna,"Susitna, AK",AK,61.54028,-150.587941,68,63,61,68,75,76,69
0274350,Susitna North CDP,Susitna North,"Susitna North, AK",AK,62.147592,-149.748537,62,59,56,61,68,69,64
0274525,Sutton-Alpine CDP,Sutton-Alpine,"Sutton-Alpine, AK",AK,61.741436,-148.874181,62,58,58,64,69,70,66
0274610,Takotna CDP,Takotna,"Takotna, AK",AK,62.986854,-156.043156,67,67,64,72,75,77,73
0274830,Talkeetna CDP,Talkeetna,"Talkeetna, AK",AK,62.309515,-149.923928,65,61,59,65,72,73,67
0275050,Tanacross CDP,Tanacross,"Tanacross, AK",AK,63.328691,-143.486599,56,54,59,62,64,66,65
0275077,Tanaina CDP,Tanaina,"Tanaina, AK",AK,61.657162,-149.428191,64,60,59,65,70,72,66
0275160,Tanana city,Tanana,"Tanana, AK",AK,65.184004,-152.055102,72,72,69,74,76,78,75
0275380,Tatitlek CDP,Tatitlek,"Tatitlek, AK",AK,60.894394,-146.668388,53,53,53,57,61,61,57
0275480,Tazlina CDP,Tazlina,"Tazlina, AK",AK,62.050272,-145.443031,63,62,62,68,72,73,69
0275930,Teller city,Teller,"Teller, AK",AK,65.252363,-166.352137,39,51,54,51,44,46,44
0276260,Tenakee Springs city,Tenakee Springs,"Tenakee Springs, AK",AK,57.790054,-135.135446,57,54,56,58,57,56,56
0276590,Tetlin CDP,Tetlin,"Tetlin, AK",AK,63.181865,-142.504418,54,51,55,58,59,61,60
0277140,Thorne Bay city,Thorne Bay,"Thorne Bay, AK",AK,55.667027,-132.535653,63,55,60,62,60,60,60
0277690,Togiak city,Togiak,"Togiak, AK",AK,59.052942,-160.396855,54,54,47,58,60,59,55
0277800,Tok CDP,Tok,"Tok, AK",AK,63.328894,-143.037871,61,59,64,67,68,70,69
0278240,Toksook Bay city,Toksook Bay,"Toksook Bay, AK",AK,60.528046,-165.106204,56,52,58,60,62,61,57
0278297,Tolsona CDP,Tolsona,"Tolsona, AK",AK,62.067821,-146.12031,59,59,56,62,65,67,63
0278350,Tonsina CDP,Tonsina,"Tonsina, AK",AK,61.530342,-145.110079,44,40,38,48,55,55,46
0278680,Trapper Creek CDP,Trapper Creek,"Trapper Creek, AK",AK,62.415367,-150.407844,66,62,59,67,74,75,68
0278790,Tuluksak CDP,Tuluksak,"Tuluksak, AK",AK,61.104491,-160.938062,60,57,62,70,73,72,66
0279120,Tuntutuliak CDP,Tuntutuliak,"Tuntutuliak, AK",AK,60.410291,-162.669391,61,56,59,67,69,67,62
0279230,Tununak CDP,Tununak,"Tununak, AK",AK,60.607302,-165.127266,52,41,53,56,58,57,53
0279780,Twin Hills CDP,Twin Hills,"Twin Hills, AK",AK,59.081816,-160.280615,57,55,57,67,70,69,63
0279830,Two Rivers CDP,Two Rivers,"Two Rivers, AK",AK,64.890845,-147.089884,71,69,68,71,75,77,75
0279890,Tyonek CDP,Tyonek,"Tyonek, AK",AK,61.099425,-151.338909,63,58,60,66,73,74,67
0280100,Ugashik CDP,Ugashik,"Ugashik, AK",AK,57.64738,-156.994926,55,53,55,64,69,68,64
0280660,Unalakleet city,Unalakleet,"Unalakleet, AK",AK,63.892966,-160.795819,60,63,62,63,63,65,62
0280770,Unalaska city,Unalaska,"Unalaska, AK",AK,53.910255,-166.529041,42,45,46,44,45,46,45
0281320,Upper Kalskag city,Upper Kalskag,"Upper Kalskag, AK",AK,61.539159,-160.350935,62,57,63,71,74,74,68
0281920,UtqiagÌvik city,UtqiagÌvik,"UtqiagÌvik, AK",AK,71.264377,-156.753678,28,28,27,36,41,38,36
0282200,Valdez city,Valdez,"Valdez, AK",AK,61.083621,-146.317179,48,47,46,54,60,59,54
0282420,Venetie CDP,Venetie,"Venetie, AK",AK,67.020691,-146.374276,70,65,66,71,76,77,76
0282750,Wainwright city,Wainwright,"Wainwright, AK",AK,70.658232,-159.985214,31,32,34,46,52,46,44
0282860,Wales city,Wales,"Wales, AK",AK,65.613247,-168.068257,31,33,41,54,52,53,51
0283080,Wasilla city,Wasilla,"Wasilla, AK",AK,61.581136,-149.46079,65,61,61,66,71,73,67
0284000,Whale Pass city,Whale Pass,"Whale Pass, AK",AK,56.082115,-133.067469,60,54,58,58,58,57,57
0284070,White Mountain city,White Mountain,"White Mountain, AK",AK,64.682353,-163.413694,63,70,71,73,73,75,72
0284120,Whitestone CDP,Whitestone,"Whitestone, AK",AK,64.152772,-145.906413,68,68,67,70,73,76,74
0284200,Whitestone Logging Camp CDP,Whitestone Logging Camp,"Whitestone Logging Camp, AK",AK,58.058337,-135.409332,58,56,58,61,60,59,58
0284510,Whittier city,Whittier,"Whittier, AK",AK,60.777318,-148.663713,54,54,54,58,65,65,60
0285280,Willow CDP,Willow,"Willow, AK",AK,61.886955,-149.620241,53,48,45,53,59,61,56
0285290,Willow Creek CDP,Willow Creek,"Willow Creek, AK",AK,61.830234,-145.198597,62,61,61,67,72,72,67
0285610,Wiseman CDP,Wiseman,"Wiseman, AK",AK,67.481477,-150.158608,63,61,60,63,66,67,66
0285680,Womens Bay CDP,Womens Bay,"Womens Bay, AK",AK,57.687002,-152.684656,48,54,53,54,65,67,61
0286380,Wrangell city and borough,Wrangell,"Wrangell, AK",AK,56.180779,-132.026788,57,53,54,55,54,54,54
0286490,Yakutat CDP,Yakutat,"Yakutat, AK",AK,59.563588,-139.606191,55,57,56,58,59,58,56
0400730,Aguila CDP,Aguila,"Aguila, AZ",AZ,33.9374,-113.167329,92,95,95,97,100,102,103
0400870,Ajo CDP,Ajo,"Ajo, AZ",AZ,32.392279,-112.883874,94,96,97,99,102,104,104
0400940,Ak Chin CDP,Ak Chin,"Ak Chin, AZ",AZ,32.287326,-112.009078,94,96,97,99,100,102,103
0401090,Ak-Chin Village CDP,Ak-Chin Village,"Ak-Chin Village, AZ",AZ,33.019602,-112.080875,98,100,100,103,106,108,109
0401170,Alamo Lake CDP,Alamo Lake,"Alamo Lake, AZ",AZ,34.255851,-113.500313,96,99,100,101,104,105,107
0401560,Ali Chuk CDP,Ali Chuk,"Ali Chuk, AZ",AZ,31.816919,-112.558394,94,96,98,100,102,104,106
0401570,Ali Chukson CDP,Ali Chukson,"Ali Chukson, AZ",AZ,31.911528,-111.801625,93,95,96,98,100,101,100
0401620,Ali Molina CDP,Ali Molina,"Ali Molina, AZ",AZ,31.902547,-111.780387,93,95,96,98,100,101,100
0401920,Alpine CDP,Alpine,"Alpine, AZ",AZ,33.845523,-109.143696,80,81,81,80,80,79,80
0401990,Amado CDP,Amado,"Amado, AZ",AZ,31.697358,-111.060803,95,98,97,100,101,102,101
0402270,Anegam CDP,Anegam,"Anegam, AZ",AZ,32.374193,-112.034963,94,96,96,99,101,103,103
0402410,Antares CDP,Antares,"Antares, AZ",AZ,35.422991,-113.808288,88,91,93,92,94,95,96
0402430,Anthem CDP,Anthem,"Anthem, AZ",AZ,33.846766,-112.126999,94,97,97,99,102,104,105
0402830,Apache Junction city,Apache Junction,"Apache Junction, AZ",AZ,33.382766,-111.540509,95,98,99,99,103,105,106
0403320,Arivaca CDP,Arivaca,"Arivaca, AZ",AZ,31.574938,-111.292611,91,93,92,93,96,96,95
0403380,Arivaca Junction CDP,Arivaca Junction,"Arivaca Junction, AZ",AZ,31.738891,-111.073596,95,97,97,99,100,100,101
0403530,Arizona City CDP,Arizona City,"Arizona City, AZ",AZ,32.750852,-111.670514,93,95,95,97,99,101,101
0403915,Arizona Village CDP,Arizona Village,"Arizona Village, AZ",AZ,34.854836,-114.589339,99,101,103,103,106,108,109
0404020,Arlington CDP,Arlington,"Arlington, AZ",AZ,33.334622,-112.77475,96,99,100,102,105,108,109
0404440,Ash Fork CDP,Ash Fork,"Ash Fork, AZ",AZ,35.217187,-112.4913,84,87,88,86,88,89,90
0404710,Avenue B and C CDP,Avenue B and C,"Avenue B and C, AZ",AZ,32.719042,-114.660049,99,100,100,103,106,108,110
0404720,Avondale city,Avondale,"Avondale, AZ",AZ,33.313236,-112.328928,91,93,94,96,98,100,101
0404880,Avra Valley CDP,Avra Valley,"Avra Valley, AZ",AZ,32.419132,-111.339442,95,97,97,99,101,102,103
0404930,Aztec CDP,Aztec,"Aztec, AZ",AZ,32.807567,-113.442477,97,100,101,104,108,110,113
0405140,Bagdad CDP,Bagdad,"Bagdad, AZ",AZ,34.577199,-113.176818,88,90,92,91,93,95,96
0405450,Bear Flat CDP,Bear Flat,"Bear Flat, AZ",AZ,34.291313,-111.067426,80,83,83,84,85,86,86
0405490,Beaver Dam CDP,Beaver Dam,"Beaver Dam, AZ",AZ,36.906981,-113.936181,95,97,99,99,102,104,104
0405495,Beaver Valley CDP,Beaver Valley,"Beaver Valley, AZ",AZ,34.342889,-111.299928,81,84,85,84,86,87,87
0405700,Bellemont CDP,Bellemont,"Bellemont, AZ",AZ,35.242489,-111.813789,79,80,80,79,81,81,82
0405770,Benson city,Benson,"Benson, AZ",AZ,31.914497,-110.328552,88,90,89,89,91,91,92
0405970,Beyerville CDP,Beyerville,"Beyerville, AZ",AZ,31.392047,-110.874917,93,94,94,96,97,95,95
0406260,Bisbee city,Bisbee,"Bisbee, AZ",AZ,31.398036,-109.931834,89,90,90,90,90,90,89
0406470,Bitter Springs CDP,Bitter Springs,"Bitter Springs, AZ",AZ,36.611699,-111.647483,85,88,88,86,89,90,90
0406610,Black Canyon City CDP,Black Canyon City,"Black Canyon City, AZ",AZ,34.071413,-112.122411,92,95,96,97,100,101,103
0406820,Blackwater CDP,Blackwater,"Blackwater, AZ",AZ,33.039565,-111.579932,96,98,98,101,105,105,106
0406997,Blue Ridge CDP,Blue Ridge,"Blue Ridge, AZ",AZ,34.640739,-111.107383,80,83,83,81,81,82,83
0407025,Bluewater CDP,Bluewater,"Bluewater, AZ",AZ,34.170415,-114.262886,99,100,100,102,106,107,109
0407310,Bouse CDP,Bouse,"Bouse, AZ",AZ,33.898476,-113.996364,98,100,100,102,105,108,109
0407380,Bowie CDP,Bowie,"Bowie, AZ",AZ,32.32488,-109.484456,93,94,93,94,95,94,95
0407590,Brenda CDP,Brenda,"Brenda, AZ",AZ,33.672082,-113.937883,96,99,99,101,104,106,108
0407915,Bryce CDP,Bryce,"Bryce, AZ",AZ,32.925827,-109.823078,96,98,97,99,99,100,100
0407940,Buckeye city,Buckeye,"Buckeye, AZ",AZ,33.431573,-112.641626,96,99,100,102,106,108,109
0408020,Buckshot CDP,Buckshot,"Buckshot, AZ",AZ,32.740349,-114.483064,99,100,100,102,106,108,110
0408220,Bullhead City city,Bullhead City,"Bullhead City, AZ",AZ,35.127371,-114.55599,97,100,101,100,103,105,106
0408535,Burnside CDP,Burnside,"Burnside, AZ",AZ,35.75336,-109.624792,82,84,84,83,83,84,85
0408710,Bylas CDP,Bylas,"Bylas, AZ",AZ,33.127656,-110.114922,97,98,98,99,101,102,102
0408920,Cactus Flats CDP,Cactus Flats,"Cactus Flats, AZ",AZ,32.760507,-109.721273,95,96,96,97,98,98,98
0408990,Cactus Forest CDP,Cactus Forest,"Cactus Forest, AZ",AZ,32.957823,-111.316922,94,96,97,99,101,103,104
0409340,Cameron CDP,Cameron,"Cameron, AZ",AZ,35.853193,-111.428585,92,93,93,91,93,94,95
0409580,Campo Bonito CDP,Campo Bonito,"Campo Bonito, AZ",AZ,32.562885,-110.69843,91,93,91,91,93,94,94
0409690,Camp Verde town,Camp Verde,"Camp Verde, AZ",AZ,34.569405,-111.857014,91,94,95,95,98,99,100
0409900,Cane Beds CDP,Cane Beds,"Cane Beds, AZ",AZ,36.934154,-112.911787,86,88,91,90,91,92,94
0410040,Canyon Day CDP,Canyon Day,"Canyon Day, AZ",AZ,33.778891,-110.038193,87,89,90,89,90,90,90
0410180,Carefree town,Carefree,"Carefree, AZ",AZ,33.823214,-111.913271,91,94,95,97,100,102,102
0410320,Carrizo CDP,Carrizo,"Carrizo, AZ",AZ,33.979354,-110.331096,83,85,86,85,85,86,86
0410460,Casa Blanca CDP,Casa Blanca,"Casa Blanca, AZ",AZ,33.115452,-111.908087,97,99,100,102,106,108,109
0410530,Casa Grande city,Casa Grande,"Casa Grande, AZ",AZ,32.906895,-111.763503,95,98,98,100,103,105,106
0410670,Casas Adobes CDP,Casas Adobes,"Casas Adobes, AZ",AZ,32.341834,-111.011593,97,98,98,99,102,103,104
0411160,Catalina CDP,Catalina,"Catalina, AZ",AZ,32.484779,-110.899712,95,97,96,98,100,102,102
0411230,Catalina Foothills CDP,Catalina Foothills,"Catalina Foothills, AZ",AZ,32.301872,-110.884843,97,98,98,100,102,102,103
0411300,Cave Creek town,Cave Creek,"Cave Creek, AZ",AZ,33.836219,-111.982084,93,96,97,98,101,104,105
0411370,Cedar Creek CDP,Cedar Creek,"Cedar Creek, AZ",AZ,33.891395,-110.195691,85,87,88,85,85,86,87
0411500,Centennial Park CDP,Centennial Park,"Centennial Park, AZ",AZ,36.953812,-112.981282,86,88,91,90,91,92,94
0411580,Central CDP,Central,"Central, AZ",AZ,32.86916,-109.790772,95,97,97,97,98,99,99
0411720,Central Heights-Midland City CDP,Central Heights-Midland City,"Central Heights-Midland City, AZ",AZ,33.400183,-110.81519,91,93,93,94,96,96,96
0412000,Chandler city,Chandler,"Chandler, AZ",AZ,33.282765,-111.851819,97,100,100,103,106,108,109
0412150,Charco CDP,Charco,"Charco, AZ",AZ,32.247321,-112.600116,93,96,96,98,100,103,104
0412560,Chiawuli Tak CDP,Chiawuli Tak,"Chiawuli Tak, AZ",AZ,31.940954,-111.776473,93,95,96,97,99,100,100
0412630,Chilchinbito CDP,Chilchinbito,"Chilchinbito, AZ",AZ,36.492002,-110.049213,83,84,86,85,86,87,88
0412770,Chinle CDP,Chinle,"Chinle, AZ",AZ,36.151148,-109.578682,86,88,88,87,88,89,90
0412840,Chino Valley town,Chino Valley,"Chino Valley, AZ",AZ,34.73989,-112.40606,85,88,88,88,89,91,91
0412910,Chloride CDP,Chloride,"Chloride, AZ",AZ,35.409702,-114.197242,83,86,88,87,89,90,91
0413140,Christopher Creek CDP,Christopher Creek,"Christopher Creek, AZ",AZ,34.321005,-111.007245,83,85,86,85,86,88,88
0413190,Chuichu CDP,Chuichu,"Chuichu, AZ",AZ,32.740329,-111.78219,93,96,96,98,100,102,102
0413400,Cibecue CDP,Cibecue,"Cibecue, AZ",AZ,34.030367,-110.49196,87,89,89,90,90,92,92
0413470,Cibola CDP,Cibola,"Cibola, AZ",AZ,33.374084,-114.676283,99,100,100,102,105,107,109
0413540,Cienega Springs CDP,Cienega Springs,"Cienega Springs, AZ",AZ,34.19974,-114.212713,98,99,100,102,105,107,109
0413610,Circle City CDP,Circle City,"Circle City, AZ",AZ,33.814877,-112.580993,94,96,97,99,102,105,106
0413820,Citrus Park CDP,Citrus Park,"Citrus Park, AZ",AZ,33.533598,-112.446326,96,99,100,102,105,108,109
0413850,Clacks Canyon CDP,Clacks Canyon,"Clacks Canyon, AZ",AZ,35.220358,-114.072299,86,88,91,89,91,93,94
0413890,Clarkdale town,Clarkdale,"Clarkdale, AZ",AZ,34.747979,-112.058699,89,93,93,93,96,97,98
0413960,Claypool CDP,Claypool,"Claypool, AZ",AZ,33.406101,-110.841873,90,93,92,93,95,96,95
0414030,Clay Springs CDP,Clay Springs,"Clay Springs, AZ",AZ,34.359259,-110.304334,81,84,83,83,83,84,84
0414380,Clifton town,Clifton,"Clifton, AZ",AZ,33.02957,-109.284039,94,96,97,96,97,96,97
0414870,Colorado City town,Colorado City,"Colorado City, AZ",AZ,36.970109,-112.985312,85,88,90,89,90,92,93
0415080,Comobabi CDP,Comobabi,"Comobabi, AZ",AZ,32.055397,-111.798824,91,93,93,94,97,97,98
